ID,Title of Artwork,Year,Street Address,Address Data,Primary Artist,Type,Current Status,Property Ownership,Agency or Insitution,Stewardship Responsibility,Program ,Artist Assistants ,Architect,Creation/Dedication Date,Arts District,City,State,Zipcode,Location Name,Location Description,Related Property,Indoor/Outdoor Accessible,Medium,Description of Artwork,General Images,Subject (Person),Comments and Notes,Dimensions,Primary Artist Gender,Fabricator,Maintenance/Conservation Notes,Save Outdoor Sculpture file on record,Funding Source,Wikipedia URL,Year Accuracy,osm_id,Council District,Neighborhood,Community Statistical Area (CSA),4 digit UID,Survey,Activity,Activity Notes,Ownership Accuracy,Latitude,Longitude,Modified
,,2022,404 S. Stricker Street,,"Nether,MasPaz",Mural,in place,,Mount Clare Community Council,,,,,7/15/2022,,Baltimore,MD,,,,,Outdoor,painted mural,,,,Approximate date,,"Male, Male",,,,Lowe's Home Improvement,,,,District 9,New Southwest/Mount Clare,Southwest Baltimore,,,,,,39.28299046670665,-76.64081832631827,12/8/2022 3:00pm
,,2022,1525 Ramsay Street,,Nether,Mural,in place,,Mount Clare Community Council,,,,,6/1/2022,,Baltimore,MD,,,,,Outdoor,painted mural,,,,Approximate date,,Male,,,,,,,,District 9,New Southwest/Mount Clare,Southwest Baltimore,,,,,,39.28318822279169,-76.64145691661219,12/8/2022 3:00pm
,,2022,1737 W. Pratt Street,,"Nether,Arts + Parks",Mural,in place,,Mount Clare Community Council,,,,,3/12/2022,,Baltimore,MD,,,,,Outdoor,painted mural,,,,Date from Mount Clare Community Council Instagram post,,Male,,,,,,,,District 9,New Southwest/Mount Clare,Southwest Baltimore,,,,,,39.28511272171275,-76.64485361634512,12/8/2022 3:00pm
,"""Community Fabric of Charles North""",2022,1815 Saint Paul Street,,Nether,Mural,in place,Private Property,Central Baltimore Partnership,,,"RodSzn,Reggie Lewis",,10/19/2022,,Baltimore,MD,21202,,North facing next to parking lot,,Outdoor,painted mural,,,,,,Male,,,,Public Art Across Maryland (Maryland State Arts Council),,,,District 12,Greenmount West,Midtown,,,,,,39.31032710392162,-76.61464752056332,12/8/2022 3:00pm
,[Birdland Mural],2022,420 E. 33rd Street,,Gaia,Mural,in place,,,,Birdland Murals,,,,,Baltimore,MD,21218,,,,Outdoor,painted mural,,,,,,Male,,,,,,,,District 14,Oakenshawe,Greater Charles Village/Barclay,,,,,,39.328555590526825,-76.60996827552634,12/8/2022 3:00pm
,[Calhoun and Ramsay Street Mural],2022, 402 S. Calhoun Street,,Nether,Mural,in place,,Mount Clare Community Council,,,,,6/15/2022,,Baltimore,MD,,,,,Outdoor,painted mural,,,,Approximate date,,Male,,,,Lowe's Home Improvement,,,,District 9,New Southwest/Mount Clare,Southwest Baltimore,,,,,,39.28321532235889,-76.63947532333381,12/8/2022 3:00pm
,[Ellwood Park leaves mural],2022, 513 N. Potomac Street,,Andy Dahl,Mural,in place,Private Property,Southeast CDC,,,,,7/15/2022,,Baltimore,MD,,,,,Outdoor,painted mural,,,,Approximate date based on understanding the mural was completed mid-summer 2022 ,,Male,,,,,,,,District 13,Ellwood Park/Monument,Madison/East End,,,,,,39.29730583418954,-76.57482108959893,12/8/2022 3:00pm
,[Fox Street Park Mural],2022, 306 W. 28th Street,,,Mural,in place,Private Property,,,,,,,,Baltimore,MD,21218,Fox Street Park,Next to Fox Street Park,Fox Street Park,Outdoor,painted mural,,,,,,,,,,,,,,District 14,Remington,Medfield/Hampden/Woodberry/Remington,,,,,,39.32113833552615,-76.62203356856689,12/8/2022 3:00pm
,[Horse and cherry blossom mural],2022, 300 S. Calhoun Street,,Nether,Mural,in place,,Mount Clare Community Council,,,,,3/24/2022,,Baltimore,MD,,,,,Outdoor,painted mural,,,,Date from Nether Instagram post: https://www.instagram.com/p/CbfcT87uPmX/,,Male,,,,Lowe's Home Improvement,,,,District 9,New Southwest/Mount Clare,Southwest Baltimore,,,,,,39.284415021210016, -76.63954057255685,12/8/2022 3:00pm
,[White-tail deer mural],2022,354 S. Woodyear Street,,"Nether,Arts + Parks",Mural,in place,,Mount Clare Community Council,,,,,2/23/2022,,Baltimore,MD,,,,,Outdoor,painted mural,,,,Date from Nether Instagram post: https://www.instagram.com/p/CaU9dw6JAvD/,,Male,,,,,,,,District 9,New Southwest/Mount Clare,Southwest Baltimore,,,,,,39.28351688114712,-76.6386708807583,12/8/2022 3:00pm
,[Woman with flower mural - location needed],2022,,Missing,"Adam Stab,polenhunny",Mural,in place,,Mount Clare Community Council,,,,,6/20/2022,,Baltimore,MD,,,,,Outdoor,painted mural,,,,Date from Mount Clare Community Council Instagram post: https://www.instagram.com/p/CfDP6UTs34c/,,Male,,,,,,,,,,,,,,,,,,12/8/2022 3:00pm
,[Woman with leaves and stones mural],2022,1300 McHenry Street,,"""Ernest Shaw, Jr."",Nether",Mural,in place,,Mount Clare Community Council,,,,,7/1/2022,,Baltimore,MD,,,,,Outdoor,painted mural,,,,Approximate date; collaboration between Nether and Ernest Shaw,,"Male, Male",,,,,,,,District 9,New Southwest/Mount Clare,Southwest Baltimore,,,,,,39.28471784075569,-76.63804238736645,12/8/2022 3:00pm
,Abell Open Space Mural,2022,301 E. 32nd Street,,Hannah Atallah,Mural,in place,Private Property,,,,,,,,Baltimore,MD,,Abell Open Space,,Abell Open Space,Outdoor,painted mural,,,,, 90’ x 12’,Female,,,,,,,,District 14,Abell,Greater Charles Village/Barclay,,,,,,39.32677367959011,-76.61275873750031,12/8/2022 3:00pm
,Ascend,2022,8600 McDonogh Road,,Oletha DeVane,Sculpture,in place,Private Property,,,,,,4/19/2022,,Owings Mill,MD,21117,McDonogh School,,McDonogh School,Outdoor,,,,"David McDonogh,Nancy",,14' high,Female,,,,,,,,,,,,,,,,39.39501324873979,-76.77830438241268,12/8/2022 2:56pm
,B'MORE Birds: Black-crowned Night Heron,2022,5431 York Road,,Iandry Randriamandroso,Mural,in place,Private Property,,,,,,,,Baltimore,MD,21212,,,,Outdoor,painted mural,,,,,,Male,,,,,,,,District 4,Mid-Govans,Chinquapin Park/Belvedere,,,,,,39.35637103106436,-76.60976407625857,12/8/2022 3:00pm
,Braiding Seeds,2022,117 W. 24th Street,,Jaz Erenberg,Mural,in place,Private Property,,,,,,,,Baltimore,MD,21218,Our Time Kitchen,Front facade,,Outdoor,painted mural,,,,,,Female,,,,,,,,District 12,Old Goucher,Greater Charles Village/Barclay,,,,,,39.316109759450356,-76.61911333702167,12/8/2022 3:00pm
,Memorial to Those Enslaved and Freed,2022,8600 McDonogh Road,,Oletha DeVane,"Memorial,Landscape",in place,Private Property,,,,,,4/19/2022,,Owings Mill,MD,21117,McDonogh School,,McDonogh School,Outdoor,,,,,,,Female,,,,,,,,,,,,,,,,39.39501324873979,-76.77830438241268,12/8/2022 2:56pm
,Prosper,2022,305 E. Lafayette Street,,Hannah Atallah,Mural,in place,Private Property,,,,,,,,Baltimore,MD,,,,,Outdoor,painted mural,,,,,,Female,,,,,,,,District 12,Greenmount West,Midtown,,,,,,39.3098220393883,-76.61179906589186,12/8/2022 3:00pm
,Union Square Entrance Mural [Wall 2],2022, 132 S. Gilmor Street,,"Nether,Arts + Parks",Mural,in place,,,,,,,5/3/2022,,Baltimore,MD,,,,,Outdoor,painted mural,,,,Date from Nether Instagram post: https://www.instagram.com/p/CdGf2fOuyEM/,,Male,,,,,,,,District 9,Union Square,Southwest Baltimore,,,,,,39.28549305820471,-76.64244244328431,12/8/2022 3:00pm
,Union Square Entrance Mural [Welcome to Union Square],2022, 121 S. Gilmor Street,,"Nether,Arts + Parks",Mural,in place,,,,,,,5/3/2022,,Baltimore,MD,,,,,Outdoor,painted mural,,,,Date from Nether Instagram post: https://www.instagram.com/p/CcnmmmfOjmb/,,Male,,,,,,,,District 9,Union Square,Southwest Baltimore,,,,,,39.285559024921554,-76.64197664911005,12/8/2022 3:00pm
,[Bluebird and girl mural],2021,1701 Cole Street,,Nether,Mural,in place,,Mount Clare Community Council,,,,,11/23/2021,,Baltimore,MD,,,,,Outdoor,painted mural,,,,Date from Mount Clare Community Council Instagram post: https://www.instagram.com/p/CWo7I3nMeb0/,,Male,,,,Lowe's Home Improvement,,,,District 9,New Southwest/Mount Clare,Southwest Baltimore,,,,,,39.282025424510074,-76.64354782475974,12/8/2022 3:00pm
,"[Flowers, birds, and key mural]",2021,1621 Cole Street,,"Nether,Arts + Parks",Mural,in place,,Mount Clare Community Council,,,,,12/28/2021,,Baltimore,MD,,,,,Outdoor,painted mural,,,,Date from Mount Clare Community Council Instagram post: https://www.instagram.com/p/CYDJFaONWM1/,,Male,,,,Lowe's Home Improvement,,,,District 9,New Southwest/Mount Clare,Southwest Baltimore,,,,,,39.28207378620673,-76.64305054812776,12/8/2022 3:00pm
,[Fox and forest mural],2021,300 S. Woodyear Street,,"Nether,Hiro Hubbard,Carter Roach",Mural,in place,,,,,,,2/2/2021,,Baltimore,MD,,,,,Outdoor,painted mural,,,,Date from Mount Clare Community Council Instagram post: https://www.instagram.com/p/CKzIxTcp3Xt/,,Male,,,,,,,,District 9,New Southwest/Mount Clare,Southwest Baltimore,,,,,,39.28444118014761,-76.6387755513151,12/8/2022 3:00pm
,Centre Street Mural Project,2021,601 N Howard Street,,Bridget Cimino,Mural,in place,,Maryland Center for History and Culture,,,,,,,Baltimore,MD,,,,,Outdoor,painted mural,,,,,,Female,,,,,,,,District 11,Mount Vernon,Midtown,,,,,,39.296286041436666,-76.61952096675444,12/8/2022 3:00pm
,Dee's Place Welcome Mural,2021,1212 N. Wolfe Street,,Ali Mirsky,Mural,in place,,,,,,,,,Baltimore,MD,21213,,Outdoor - Historic East Baltimore,,Outdoor,painted mural,outdoor painted mural ,,,,,,,,,,,,,,,,,,,,,,,12/8/2022 3:00pm
,Drawing Outside the Lines,2021,3560 3rd Street,,"Blake Conroy,Nicole Fall,Fall Conroy Projects",Sculpture,in place,Mayor & City Council,,,,,,,,Baltimore,MD,,,On window grates around Brooklyn O'Malley Boys & Girls Club,,Outdoor,metal,,,,Window mounted metal sculptures based on youth drawings,,Female,,,,Public Art Across Maryland (Maryland State Arts Council),,,,District 10,Brooklyn,,,,,,,39.23818050864677, -76.60705844996086,12/8/2022 2:55pm
,Eager Park Community Mural,2021,1101-1125 N. Wolfe Street,,LaToya D. Peoples,Mural,in place,,,,EBDI Public Arts and Placemaking Workgroup,,,8/14/2021,,Baltimore,MD,21213,,Southeast corner of East Biddle Street & North Wolfe Street; Located on north side of the building at the corner of E. Biddle and N. Wolfe Streets,,Outdoor,painted mural,outdoor - painted mural - in community park,,,"First project for EBDI Public Arts and Placemaking Workgroup.     Darrian Alexander, a rising 9th grader and recent graduate of Henderson-Hopkins;     Randolph Scott, a lifelong Middle East/Eager Park resident and retired Army veteran;     SirKaeden Carr, a rising 1st grader at Henderson-Hopkins;     Delegate Hattie Harrison, a lifelong resident and champion of East Baltimore who represented the 45th District as a State Delegate in the Maryland General Assembly from 1973 until she passed in 2013 as the longest-serving member of the Maryland House of Delegates and the first African American woman to chair a major committee;     Latisha Jackson, a Henderson-Hopkins teacher, and her son, Daryll Thames, a rising 4th grader at Henderson-Hopkins; and     Sol Aloe, a rising 4th grader at Henderson-Hopkins from https://www.wmar2news.com/news/local-news/new-mural-in-east-baltimore-celebrates-depicts-notable-residents",,Female,,,,,,,,District 12,Middle East,Oldtown/Middle East,,,,,,39.30426790706103,-76.59102174181557,12/8/2022 3:00pm
,East Preston Street Pocket Park Community Mural,2021,1756 E. Preston Street,,Nether,Mural,in place,Mayor & City Council,,,,Arts + Parks,,,,Baltimore,MD,21213,,End of row community park,,Outdoor,painted mural,End of row community park,,,,,Male,,,,,,,,District 12,Broadway East,Greenmount East,,,,,,39.30558062757485,-76.59271382929941,12/8/2022 3:00pm
,Elwood Park,2021,3030 Jefferson Street,,Andy Dahl,Mural,in place,Mayor & City Council,Baltimore City Department of Recreation & Parks,,,,,,,Baltimore,MD,21205,Elwood Park,,Elwood Park,Outdoor,painted mural,,,,,,Male,,,,Southeast CDC General Funds,,,,District 13,Ellwood Park/Monument,Patterson Park North & East,,,,,,39.296485,-76.574230,12/8/2022 3:00pm
,It all begins with a dream,2021,4600 Lanier Avenue,,Iandry Randriamandroso,Mural,in place,,,,,,,,,Baltimore,MD,21215,Park Heights Academy,,Park Heights Academy,Outdoor,painted mural,,,,Assisted by Kenneth C. Clemons and others (see Iandy IG account for image),,Male,,,,,,,,,,,,,,,,39.34404381707892,-76.66218834140017,12/8/2022 3:03pm
,North Avenue Rising,2021,1601 North Avenue,,Megan Lewis,Mural,in place,Mayor & City Council,,,,,,,Black Arts District,Baltimore,MD,21217,,Indoor - inside subway station at Penn-North,,Indoor,painted mural,South facing mural inside Penn-North Metro Subway Station,,,,,Female,,,,,,,,,,,,,,,,39.30973572658793,-76.64257179526481,12/8/2022 3:01pm
,Sankofa,2021,333 W. Camden Street,,"""Ernest Shaw, Jr.""",Mural,in place,,,,Birdland Murals,,,,,Baltimore,MD,,Oriole Park at Camden Yards,,Oriole Park at Camden Yards,Outdoor,painted mural,,,,,,Male,,,,,,,,District 11,Stadium Area,Inner Harbor/Federal Hill,,,,,,39.284696553244494,-76.62117165684045,12/8/2022 3:00pm
,Together Govans,2021, 4229 York Road,,"Iandry Randriamandroso,Desiree Thaniel",Mural,in place,,,,Art@Work,"Kashae White,Nukieah Brooks,Amelia Henry,Sherrill Richardson,Jamya Edwards,Antoine Padonou,Kiyan Reid",,8/5/2021,,Baltimore,MD,,,,,Outdoor,painted mural,,,,,,"Male, Female",,,,"Art@Work Program (BOPA),INSPIRE- Department of Planning Community Art",,,,District 4,Pen Lucy,Greater Govans,,,,,,39.34085535043104,-76.60934998948085,12/8/2022 3:00pm
,Together Govans,2021,4300 York Road,,Iandry Randriamandroso,Mural,in place,Mayor & City Council,,,,,,,,Baltimore,MD,21212,Walter P. Carter ES,Outdoor at Walter P Carter,Walter P. Carter ES,Outdoor,painted mural,North facing mural at 43rd Street & York Road,,,"Assts: Desiree Thaniel. Kiyan Reid, Antoine Padonou, Jamya Edwards, Sherrill Richardson, Amelia Henry, Nukieah Brooks, Kasshae White",,Male,,,,,,,,,,,,,,,,39.34113500364176,-76.60979128593266,12/8/2022 3:01pm
,Unity,2021,1758 Park Avenue,,"""Ernest Shaw, Jr.""",Mural,in place,,,,,"Gaia,LaToya D. Peoples,Nether",,,,Baltimore,MD,21217,,Outdoor - Bolton Hill - 1758 Park Avenue,,Outdoor,painted mural,Mural,,,,,Male,,,,,,,,District 11,Bolton Hill,Midtown,,,,,,39.31049343458703,-76.62816482298553,12/8/2022 3:00pm
,Untitled,2021,300 Pontiac Avenue,,"Annie Howe,Andy Dahl",Mural,in place,,,,,,,,,Baltimore,MD,21225,,Outdoor 300 S. Pontiac Street,,Outdoor,painted mural,Outside,,,Exterior wall of Maree Farring Elementary/Middle School,,"Female, Male",,,,,,,,District 10,Brooklyn,,,,,,,39.23693845586548,-76.60703262347086,12/8/2022 3:00pm
,Untitled,2021,2135 E. North Avenue,,"""Ernest Shaw, Jr.""",Mural,in place,,,,,,,,,Baltimore,MD,21213,,Duncan St. Miracle Garden,,Outdoor,painted mural,Outdoor mural in Duncan St Miracle Garden in East Baltimore,,,,,Male,,,,,,,,,,,,,,,,39.312289153955255,-76.58767733335358,12/8/2022 3:02pm
,"""Serenty Courage Wisdom"" Mural",2020,1820-1828 W. Saratoga Street,,Bridget Cimino,Mural,in place,Private Property,,,,,,,,Baltimore,MD,21223,Kirby Lane Park,,Kirby Lane Park,Outdoor,painted mural,,52152262983_c396fbc830_b.jpg (https://v5.airtableusercontent.com/v1/13/13/1670544000000/fZilm4ECXpuqR1GoxwPOTA/C1c-03feFiNxR6vv-dLZp89j_e4-mj993McM0ckuOvnXpck7MOvItAwnS6gt84yEnMlvPb3xlGovnxFRK-Z5wydVqVyfPQT2rAcuE-Ax6yBLkDsA-AZTOvonct08CZuq/okie8VLxPbWhA1BE8-BzRQ0x0pgcjY9DxbHDBea38ck),,,,Female,,,,,,,,District 9,Franklin Square,Southwest Baltimore,,,,,,39.292173790398266,-76.64634961748472,12/8/2022 3:00pm
,[Killer Cat],2020,3604 Elm Avenue,,Nether,Mural,in place,Private Property,,,,,,7/21/2020,,Baltimore,MD,,,North sidewall of building,,Outdoor,painted mural,Supported by Mammoth Properties,52303788997_cba6c9f5fc_b.jpg (https://v5.airtableusercontent.com/v1/13/13/1670544000000/PvyQqlmfQs7B_eEhYT_Spw/en5AitwQ6dZ4QXHYemLx1zyLjMHfoAuSrKnJhslXX9QjjTmO55nREQPGRYbGlwJvJNaIKtDPvnvV_59TmZXbUmkmV72Q1WYT4L0TugxWgT4w1WEBlW_PPzu3FgmP7I-8/MeE27SPxefNcTGJ0NJYHOt-ko-tnh2AbvkU61pIH-7E),,Date from Nether Instagram post: https://www.instagram.com/p/CC6ilP6JQ80/,,Male,,,,,,,,District 14,Hampden,Medfield/Hampden/Woodberry/Remington,,,,,,39.33139391825128,-76.6314900796465,12/8/2022 3:00pm
,[Welcome to Waverly mural],2020,3011 Greenmount Avenue,,Gaia,Mural,in place,Private Property,,,,,,,,Baltimore,MD,,,,,Outdoor,painted mural,,,,,,Male,,,,,,,,District 14,Better Waverly,The Waverlies,,,,,,39.32569846456727,-76.60926250214196,12/8/2022 3:00pm
,All Power to the People,2020,1917 Greenmount Avenue,,"MasPaz,GUACHE",Mural,in place,Private Property,,,,,,11/11/2020,,Baltimore,MD,,,,,,painted mural,,,,,,Male,,,,,,,,District 12,East Baltimore Midway,Midway/Coldstream,,,,,,39.31214517909596,-76.60932681475758,12/8/2022 3:00pm
,Bee Great,2020,1133 Greenmount Avenue,,Renz Balagtas,Mural,in place,,,,,"Sam Rientenbach,Jack Coyle",,,,Baltimore,MD,21202,,Southeast corner of E Biddle Street and Greenmount Avenue,,Outdoor,painted mural,Outdoor - painted mural in Johnston Square,,,,,,,,,,,,,District 12,Johnston Square,Greenmount East,,,,,,39.30363393895357,-76.6076805240615,12/8/2022 3:00pm
,Butchers Hill Stoop Story,2020,12 N. Collington Street,,Nether,Mural,in place,,,,,,,,,Baltimore,MD,21231,,mural situated in alley in Butcher's Hill,,Outdoor,painted mural,Outdoor painted mural in alley in Butcher's Hill,,,,,Male,,,,,,,,District 13,Butcher's Hill,Patterson Park North & East,,,,,,39.29245892222742,-76.58619634720881,12/8/2022 3:00pm
SECDC,Corona Grocery Mural,2020,3520 E. Lombard Street,,Jeff Henriquez,Mural,in place,Private Property,Southeast CDC,,,,,,,Baltimore,MD,,Corona Grocery,,,Outdoor,painted mural,,,,,,Male,,,,Healthy Neighborhoods,,,,District 1,Baltimore Highlands,Highlandtown,,,,,,39.2915316,-76.5676276,12/8/2022 3:00pm
SECDC,Pegasus [Greektown],2020,Eastern Avenue and S. Lehigh Street,Intersection,Dominic Terlizzi,Sculpture,in place,,Southeast CDC,,,,,,,Baltimore,MD,,,Greektown,,Outdoor,aluminum,,,,,,Male,,,,Baltimore Regional Neighborhood Initiative (BRNI),,,node/7449617273,District 1,Greektown,Orangeville/East Highlandtown,,,,,,39.2870167,-76.5579648,12/8/2022 2:54pm
,Rep. Elijah Cummings Memorial Mural,2020,1233 Druid Hill Avenue,,Adam Stab,Mural,in place,,,,,,,10/17/2020,,Baltimore,MD,,,,,Outdoor,painted mural,,,,,,Male,,,,,,,,District 11,Upton,Upton/Druid Heights,,,,,,39.301908238178406,-76.62819270143821,12/8/2022 3:00pm
,Wall of Pride: Back to the Future,2020,1611 N. Carey Street,,"""Ernest Shaw, Jr.""",Mural,in place,,,,,"Gaia,Deborah Mason,F. Michele Santos,Shawn James,Nether",,,,Baltimore,MD,21217,Cumberland Park,Facing north in Cumberland Park,,Outdoor,painted mural,Outdoor - painted mural - facing north in Cumberland Park,,,,,Male,,,,,,,,District 7,Sandtown-Winchester,Sandtown-Winchester/Harlem Park,,,,,,39.308130,-76.641427,12/8/2022 3:00pm
,[Butterfly mural],2019,1638 Cole Street,,Francisco Enuf Garcia (@enuf86),Mural,in place,,Mount Clare Community Council,,,,,5/28/2019,,Baltimore,MD,,,,,Outdoor,painted mural,,,,Additional artist possible? Date from Mount Clare Community Council Instagram post: https://www.instagram.com/p/ByAp9ltpEGR/,,,,,,,,,,District 9,New Southwest/Mount Clare,Southwest Baltimore,,,,,,39.28232255857754,-76.64333174194718,12/8/2022 3:00pm
,[Mission Fit Baltimore mural],2019,2720 Sisson Street,,Nether,Mural,in place,Private Property,,,,,,5/18/2019,,Baltimore,MD,,,,,Outdoor,painted mural,,,,Date from Nether Instagram post: https://www.instagram.com/p/BxnHov_J1Ff/,,Male,,,,,,,,District 12,Jones Falls Area,Medfield/Hampden/Woodberry/Remington,,,,,,39.31894458133566,-76.62498119684462,12/8/2022 3:00pm
2019.001.PfA.WhFrazCrMic,[Pimlico INSPIRE],2019,4800 block of Pimlico Road,Block,"Whitney Frazier,Crystal Micriotti","Mural,Sculpture,Horizontal Mural",in place,Mayor & City Council,"Baltimore City Department of Transportation,Baltimore City Department of Planning",Baltimore Office of Promotion and the Arts,"Percent for Public Art (BOPA),INSPIRE- Department of Planning Community Art",,,9/1/2019,,Baltimore,MD,21215,,Community Green Space (DOT Right of Way) at the intersection of Pimlico Road and Thorndale Ave,,Outdoor,"cast concrete,stainless steel,painted metal,painting,ground mural","Large Horizontal mural around greenspace, with a custom steel/concrete sculpture on the interior of the garden painted to match the mural.","41FF4E8E-67B9-49F6-A310-CAEEDDC1EEE2.JPG (https://v5.airtableusercontent.com/v1/13/13/1670544000000/zsG3DOyR2_OgN4H8y7SEmw/jlXFLQtZjJByYxPkXwaHQ_k2jaunO51gBBp5EUdaDPdt496arY_nNcHjYzGCdyohbJ-nIvq1pcI9S3GQvDercFkn2c5pB2ILba6LbUCb7pNzOXmMtfM0AOnT30wkTbON/Y5M-YUnzjy5h7yq_OVI5e_pvRSgBy6cFpGrW7ZK6a4A),9DE2253E-F03C-4F85-A9D5-92633F6B16E6.JPG (https://v5.airtableusercontent.com/v1/13/13/1670544000000/toNCVNhmgyjdjMYXPyPM3g/Slvb-LXHjZ7zEHLhusViPB7bLoDx2EFsx4NSSbD-eWe2wIF5lYCUmHgW96qDNFVDHiFJFz0HDiMIt11PJO5AVtfTQa23ZLK-C_vUiulNaJTW9S0m7AQTjtmLwqexaxGC/Gw6ajYphwC76IxIYKkIK559Hj6uex2gmNm-fCXcs1n4),43DC23FD-CACD-400C-B9BB-44DBD602B105.JPG (https://v5.airtableusercontent.com/v1/13/13/1670544000000/cm056OvlhRbnba6gfoosiQ/K09F_QqYp3VvIA-irEfK_hW615ncaKko0Vd1oA0EVTQCTBiJ3IwYFnGn7k_pOMubbKhS8hOGvqLrclbOCJ9NiRBgmLplLTIBh3mH2ipgwj0-LV_3ZaI00I6F3SAynpMD/Wcg_JGlG2_-5bL2o7smq3wFSXI1carLh4JwUJ8iFtxY),87AE846D-C1DB-4DD5-927C-1F2E069211E5.JPG (https://v5.airtableusercontent.com/v1/13/13/1670544000000/BNwdaY67ynKZsLktxqd0MA/31CZWcXqw51vVl7lo2XIRU0sasvFycUvgvjIpEKl8UPaUkVaVzRv-LpZtmfpAHShuNg-K1Y55fj3A6Mp-mwEfuukALCLUdgoVYkdd4rZFJo-rTfdySwNfD2YEcWp_4Fa/UUb6cJvIILfm2pNe55dZQwndEdQCgUYHnHwVtuM8cxI),1216FA7C-11ED-495B-B05F-2B5B1D3ADB1D.JPG (https://v5.airtableusercontent.com/v1/13/13/1670544000000/4eEFU6mvUhuccEN1Zo_5RA/J9d8_-ctUZS9OOZ-uaCCEwMMRekK08XxK5hrKErQr6vQq1wrz8TLaE6TAJ4Ne7mAkZe46tNB4qGXu9ULnKI_Xb4F-91AANKuPbhsiyeni1KzFKvAt51FcRz8ZAkn7deq/qSrkacwGazsmCOJxQmOQDG5J22z0yWEwAZfRF6P813Y),B1C2FAD5-CC85-471D-A24A-BA50A892B9FD.JPG (https://v5.airtableusercontent.com/v1/13/13/1670544000000/uBfoVLX1Yq3vv7xPCJ_Qrw/_TMifjo4wA0sNKiMkABi9D3Qd-RzA9JmzFiSdEmurSO8rbHbT0nfVlZcinLFXDgjKDw_h7Ab-xNbYVVwEBRyH0kWY9LIYKZBH9VIWYF5TTfkj3kmI3cNjxxg_U3Mv2O5/pt8uGoKwc6dgOQEajq4L6YWE2Ah6BE970CZqCnETVr0),DBCA67AE-6606-4E1B-8A1E-3ABF039D565B.JPG (https://v5.airtableusercontent.com/v1/13/13/1670544000000/9uRF2tWZSA193FVU-aV0UQ/dG8eRX3MxzabMA0cpg49OsaSh4n1TRktpINDx-_nJVfwsPsAekEoCU-aFED0HO6dciCEYjO-RcHa5hcMwQnO9iN08h3ggXaU8BmIjaUBu3PChpCEQvfXY68v12TGap7x/joulkthI6oR2ar7Kc_uUAcWjVkoEcA6wsG4UsypqDV0)",,INSPIRE- Community Arts Project,6'H x 80'W x 80'D,"Female, Female",David Scheper,"See accession documents. Greenspace to be managed by Park Heights Renaissance, Artwork maintenance to be managed by BOPA.",,,,,way/839682886,District 6,Central Park Heights,Pimlico/Arlington/Hilltop,,,,,,39.347010,-76.669055,12/8/2022 2:54pm
,A Great Day for Learning,2019,4301 W. Bay Avenue,,Megan Lewis,Mural,in place,,,,,,,,,Baltimore,MD,21225,,Brooklyn - Curtis Bay - Baltimore City,Curtis Bay Middle School,Outdoor,painted mural,Mural - outdoor - Curtis Bay Elementary/Middle School,,,Painted mural - outdoors,,Female,,,,,,,,,,,,,,,,,,12/8/2022 3:00pm
,Bee Kind,2019,924 E. Biddle Street,,Renz Balagtas,Mural,in place,,,,,"Sam Rientenbach,Jack Coyle",,,,Baltimore,MD,21202,,"Outdoor, Johnston Square, East Baltimore",,Outdoor,painted mural,Outdoor painted mural in East Baltimore - Johnston Square Community,49243440951_9f87455548_b.jpg (https://v5.airtableusercontent.com/v1/13/13/1670544000000/0J2Wb3KV6bAWfw_BTDfKcQ/lnPRr2EBUUZPu_Gl5fxT0zeW6wXnacijOE42ZKS7D3maftsDj_1Pct5HlPg7_5V6AI4yu_WHzqUV9FWJAA808DvTjdTIh7qL1UYHxzGPvLW_ne8dxogFUsp_tCmuai83/hH0EDN4i6HG963tW6x4VBKEpc18_TM4OAXQlopGUhpw),,,,,,,,BOPA Community Arts Grant,,,,District 12,Johnston Square,Greenmount East,,,,,,39.30408040864419,-76.60415749095095,12/8/2022 3:00pm
,"Joy, Happiness, Fun",2019,5501 Ivanhoe Road,,Iandry Randriamandroso,Mural,in place,,,,,,,,,Baltimore,MD,21212,Walter J. Dewees Recreation Center,Ourdoor - painted mural - Govans - Walter J. Dewees Recreation Center,Walter J. Dewees recreation Center,Outdoor,painted mural,Painted mural outdoor in Govans at Walter J. Dewees Recreation Center,,,"Assts: Amelia Henry, Savannah Jackson, Joanna Hollins, Makayla McClinton, Sire Rodgers, Hope Sacco, Olivia Thomas, Traenard Thompson, Dan Zembower",,Male,,,,,,,,District 4,Mid-Govans,Chinquapin Park/Belvedere,,,,,,39.35632628588041,-76.60408220842831,12/8/2022 3:00pm
,Legacy,2019,2304 Greenmount Avenue,,"""Ernest Shaw, Jr.""",Mural,in place,,,,,"Gaia,Pablo Machioli,Multisse",,,,Baltimore,MD,21218,Greenmount Recreation Center,Greenmount - East Baltimore - Barclay Community,Greenmount Recreation Center,Outdoor,painted mural,Painted outdoor mural at Greenmount Recreation Center,,,,,Male,,,,,,,,District 12,Barclay,Greater Charles Village/Barclay,,,,,,39.31603238684143,-76.60968458414584,12/8/2022 3:00pm
,Mount Clare Entrance Park,2019,S. Gilmor Street and W. Pratt Street,Intersection,Nether,"Mural,Landscape",in place,Private Property,,,,Arts + Parks,,,,Baltimore,MD,,,,,Outdoor,painted mural,,,,,,Male,,,,"Southwest Partnership,Chesapeake Bay Trust",,,,District 9,New Southwest/Mount Clare,Southwest Baltimore,,,,,,39.28525900416732,-76.64202672534687,12/8/2022 3:00pm
,"One Baltimore, Many Shades [#OneBaltimoreManyShades]",2019,5315 York Road,,S. Rasheem,Mural,in place,,,,Art@Work,"""Jerome Staten, Jr.""",,,,Baltimore,MD,21212,,Govans - York Road - Outdoor painted mural,,Outdoor,painted mural,Outdoor painted mural on Woodbourne Avenue side of building,,,"Assts: Elizabeth Dorsey, Anya Dorsey, Perryion Harris, Donte McKoy, William Morton, Makayla Nichols, Briasia Pratt, Deonna Way, Jason Smith Jr",,,,,,Art@Work Program (BOPA),,,,District 4,Woodbourne-McCabe,Greater Govans,,,,,,39.35523309122097,-76.60815146826522,12/8/2022 3:00pm
,One Preakness,2019,5000 Park Heights Avenue,,Iandry Randriamandroso,Mural,in place,Private Property,,,,,,,,Baltimore,MD,21215,,Park Heights - South facing wall of Harbor Bank,Harbor Bank,Outdoor,painted mural,Painted outdoor mural in Park Heights - Preakness theme ,,,Assissted by Herb Massie and community artists,,Male,,,,Baltimore Mural Program (BOPA),,,,District 6,Central Park Heights,Pimlico/Arlington/Hilltop,,,,,,39.34744805427229,-76.67383370564482,12/8/2022 3:00pm
,Pimlico Golden Garden,2019,3100 Spaulding Avenue,,Nether,"Mural,Landscape",in place,Private Property,,,,Arts + Parks,,,,Baltimore,MD,,,,,Outdoor,painted mural,,,,,,Male,,,,Healthy Neighborhoods,,,,District 6,Central Park Heights,Pimlico/Arlington/Hilltop,,,,,,39.34875,-76.67403,12/8/2022 3:00pm
,Racheal Wilson Memorial Project,2019,123 S. Calverton Street,,Nether,Mural,in place,Private Property,,,,Arts + Parks,,,,Baltimore,MD,21223,,"Outdoor, painted mural in Boyd-Booth community in 21223",,Outdoor,painted mural,Painted outdoor mural,,,Memorial for Rachael Wilson; Point location is approximate,,Male,,,,,,,,District 9,Boyd-Booth,Southwest Baltimore,,,,,,39.28567901140082,-76.65032936750872,12/8/2022 3:00pm
,Straight Outta Baybrook,2019,4501 Farring Court,,"""Ernest Shaw, Jr.""",Mural,in place,Mayor & City Council,,,,,,,,Baltimore,MD,21225,,Farring-Baybrook Recreation Center,Farring-Baybrook Recreation Center,Outdoor,painted mural,Painted mural - outdoor - at Farring-Baybrook Recreation Center,,,"Assts: Desiree Thaniel, Markel Cox, David Brown, Jr, Teala Humphries, Jaylyn Pendleton, Kiyae Woods, Darien Triplett, Jaylen Wilder",,Male,,,,,,,,District 10,Brooklyn,,,,,,,39.22507064750884,-76.59762092018772,12/8/2022 3:00pm
,Welcome to Charles Village,2019,3117 Saint Paul Street,,C. Ryan Patterson,Mural,in place,Private Property,,,,Rachel Valsing,,,,Baltimore,MD,21218,,"Courtyard between two commercial buildings with murals on both building sidewalls (larger on north side, smaller on south)",,Outdoor,painted mural,,,,,,Male,,,,,,,,District 14,Charles Village,Greater Charles Village/Barclay,,,,,,39.32639533622531,-76.61566655680761,12/8/2022 3:00pm
,"[""Mr. Ed the Cat"" mural]",2018,301 Wyman Park Drive,,Gaia,Mural,in place,Private Property,Greater Remington Improvement Association,,,,,,,Baltimore,MD,,,,,Outdoor,painted mural,,,,,,Male,,,,PNC Transformative Art Grant (BOPA),,,,District 14,Remington,Medfield/Hampden/Woodberry/Remington,,,,,,39.32548198338052,-76.62493093505881,12/8/2022 3:06pm
,[Madonna mural],2018,400 W. 23rd Street,,Gaia,Mural,in place,Private Property,Greater Remington Improvement Association,,PNC Transformative Art Grant (BOPA),,,6/22/2018,,,,,,,,Outdoor,painted mural,,,,,,Male,,,,PNC Transformative Art Grant (BOPA),,,,District 12,Remington,Medfield/Hampden/Woodberry/Remington,,,,,,39.31533984307147,-76.62209749941131,12/8/2022 3:06pm
,[Open Walls X mural],2018,424 Pitman Place,,Cosmic Boys,Mural,in place,,,,Open Walls Baltimore 2,,,,,Baltimore,MD,,,,,Outdoor,painted mural,,,,,,,,,,,,,,District 12,Greenmount West,Midtown,,,,,,39.30857599298528,-76.60998931291721,12/8/2022 2:54pm
,[REMINGTON murals],2018,2701 Sisson Street,,"Greg Gannon,Carol P. Jarvis",Mural,in place,,Greater Remington Improvement Association,,,,,,,,,,,,,Outdoor,painted mural,,,,Two part mural on fence and shipping container; location based on shipping container,,"Male, Female",,,,BOPA Community Arts Grant,,,,District 12,Remington,Medfield/Hampden/Woodberry/Remington,,,,,,39.319141162822504,-76.62442815276817,12/8/2022 3:00pm
,[Three women in Remington mural],2018,2601 Hampden Avenue,,Gaia,Mural,in place,Private Property,Greater Remington Improvement Association,,,,,,,Baltimore,MD,,,,,Outdoor,painted mural,,,,One of three works in Transformative Art Prize project,,Male,,,,PNC Transformative Art Grant (BOPA),,,,District 12,Remington,Medfield/Hampden/Woodberry/Remington,,,,,,39.318375721118734,-76.62233786456633,12/8/2022 3:06pm
,Black-Eyed Susan,2018,2921 E. Madison Street,,Nether,Mural,in place,Private Property,,,,Arts + Parks,,,,Baltimore,MD,,,,,Outdoor,painted mural,,,,Completed c. Winter 2017 – Summer 2018,,Male,,,,Coca-Cola Bottling Company Consolidated,,,,District 13,Madison-Eastend,Madison/East End,,,,,,39.30000095458445,-76.5759375418742,12/8/2022 3:06pm
,Bocek Building Bocek,2018,801 N. Linwood Avenue,,Nether,Mural,in place,Private Property,,,,Arts + Parks,,,,Baltimore,MD,,,,,Outdoor,painted mural,,,,Completed c. Winter 2017 – Summer 2018,,Male,,,,Coca-Cola Bottling Company Consolidated,,,,District 13,Madison-Eastend,Madison/East End,,,,,,39.30024,-76.57648,12/8/2022 3:06pm
,Bon Secours Centennial Mural,2018,2000 W. Baltimore Street,,Whitney Frazier,Mural,in place,,,,,,,,,Baltimore,MD,,,,,Outdoor,painted mural,,,,286’ x 10’,,Female,,,,,,,,District 9,Penrose/Fayette Street Outreach,Southwest Baltimore,,,,,,39.2882109838597,-76.64830760004578,12/8/2022 3:06pm
,Cat,2018,301 Wyman Park Drive,,Dominic Terlizzi,Sculpture,in place,Private Property,,,,,,,,Baltimore,MD,,,,,Outdoor,steel,,,,,,Male,,,,,,,node/8949042312,District 14,Remington,Medfield/Hampden/Woodberry/Remington,,,,,,39.3256306,-76.6250546,12/8/2022 2:54pm
,Collington Square School,2018,1409 N. Collington Avenue,,Nether,Mural,in place,Private Property,,,,Arts + Parks,,,,Baltimore,MD,,,,,Outdoor,painted mural,,,,,,Male,,,,"""Baltimore Neighborhoods, Inc. (BNI)"",Civic Works",,,,District 13,Broadway East,Clifton-Berea,,,,,,39.30736,-76.58643,12/8/2022 3:06pm
,Darley Park Mural,2018, 1617 Normal Avenue,,Whitney Frazier,Mural,in place,,,,,Crystal Micriotti,,,,Baltimore,MD,,,,,Outdoor,painted mural,,,,Completed early Nov. 2018 - https://ndc-md.org/journal/photo-story-darley-park-mural-installation,,Female,,,,"Baltimore Mural Program (BOPA),PNC Transformative Art Grant (BOPA)",,,,District 14,Darley Park,Clifton-Berea,,,,,,39.31582853200478,-76.59520534257712,12/8/2022 3:06pm
2018.01.PfA.GaMul,DPW Every Day,2018,,Missing,Gary Mullen,Mural,in place,Mayor & City Council,,Baltimore Office of Promotion and the Arts,,"Lashae Church,Katelyn Collier,Kashaun Drumgoogle,Amanda Holland,Samira Jackson,Dominique Jeffers,Morgan Lee,Raquel McCain,Cynthia Pual Abalum,Davual Smith,Sierra Walston,Justin Watford,Katrell Wilkinson,Darien Williams",,,,Baltimore,MD,,,Across the street from DPW Park Terminal,,Outdoor,painted mural,,"jstin2.jpg (https://v5.airtableusercontent.com/v1/13/13/1670544000000/qGzE6Rws3sVpeUbrgIj6pQ/FQiqgudVlpclYsrD-7VLqeQJJQ4I1sopDBrFs4krnkqxVPUDZBmJZYnAKpM9WnAjla0B5Yy9PYwrN_iAZ3sq5SyjRT5HpWBEVB6xRQ58Log/HyjQ8XE2QGyrOH8bXCTRUxqBVIJpzO-rDbRMdSCLfnQ),edited.jpg (https://v5.airtableusercontent.com/v1/13/13/1670544000000/txmJfrdWi-oWvkPMpZjCIQ/Kw1KDdq9xMM2vtCrbw9Bhp8c8_fVBvZGgT0E-fxmXDP60iawGPkeV1h5I9uPmpO9gDcGXXJi2SziytBd_SYIoup4JHhjEThqZtKoFj0I7Fc/2fMnbvMfWqm8dcCiZJsDNyQzbbkYsrdAFSf_FHUQJfA),hil.jpg (https://v5.airtableusercontent.com/v1/13/13/1670544000000/S0aEbgHCmwzWrXE-fiz11w/sUBBhMDFY3FMdLw1Fiip6zn68w-3pMvxAWy5B3Mf8ej4UrwizPxdC5EuWFF4LnaEEJcWfiecBSwj7YlmpLXhsQ/3U3cO6P66eArxn1vbvB-de_tCtBxDOzIiBaQU_ILEMo),IMG_20180731_105504405.jpg (https://v5.airtableusercontent.com/v1/13/13/1670544000000/KnoLpQo0hY5ifCVb7UF5yg/z2lJaYtrdi13mVXiDbZoz7zmsTIwCdnsZld6ojDQs3VGZw-O_D32fxJ5SY_F2RRPg_C4pMKuAsoa4na3-mLl8T6rshHpQzy3FZ6hmvHMhG4_VWdioZKVSQO8gNg--90m/WTHtHW-Kbu4wAyDQkvQNt0u0JiQqihw4GWIS5CzM5fQ),IMG_20180731_111637873_HDR.jpg (https://v5.airtableusercontent.com/v1/13/13/1670544000000/L6hShoX7rpF6PDyzCJjxhg/ahlz9YUL1059skhXA3L6ILs0tqiMnMwVJvMbAOazmFutlv2sCG22WY5qxlDzNw76Le1kPEZNbqjJn-GyNVjY4YNl5tbKQPjS_5nsCRlxDP4fw24O_sL_rP21-CYYv9s4/u_2ORb0o5UlcJMwZNHdXNCc056uFRi5JD8TNANRyt_Y),IMG_20180731_100559275_HDR.jpg (https://v5.airtableusercontent.com/v1/13/13/1670544000000/GLrgP4GSVA_un81zyA8j6w/xI_nEJG0QSCtVVZoqaOru0P5-bfjkTsskwPd3KoZlqRZ4_ZSykXsulBKV8pREI63lLh4urRy1_zfMs9xF_otPrW6-fy4hXs_e7JnQgWiWpl1iXzXD6GMDi3YzvNCF5iL/_43l_mdkr64AGvDDMuSdte-HDwK2bMph2TtlOY-8XVQ),IMG_8732.JPG (https://v5.airtableusercontent.com/v1/13/13/1670544000000/z8KEpvJAl_EZy4P9bJz5kQ/29j2qofgTwy6wV3k5J4xZt2fTyjAWgDtc0nDEoYQnSYPUTMVIxDdAYeY0Mxv8ssNTgI_GVOxQp4YRvUO0Kkv_PQCRsnHfJD61XB6bzOwd6I/OByyeSCoIHnZs_QulnNHbwV2G41VXfe2ixTNd5D1LVs)",,,,Male,,,,,,,node/7835542035,District 7,Parkview/Woodbrook,Penn North/Reservoir Hill,,,,,,39.315563,-76.643945,12/8/2022 3:06pm
,Eclipse,2018,3021 E. Monument Street,,Nether,Mural,in place,Private Property,,,,Arts + Parks,,,,Baltimore,MD,,,,,Outdoor,painted mural,,,,Completed c. Winter 2017 – Summer 2018,,Male,,,,Coca-Cola Bottling Company Consolidated,,,,District 13,Ellwood Park/Monument,Madison/East End,,,,,,39.29899,-76.57437,12/8/2022 3:06pm
,Everyone is Welcome!,2018,2830 Oakley Avenue,,Iandry Randriamandroso,Mural,in place,,,,Art@Work,,,,,Baltimore,MD,,Callowhill Aquatic Center,,Callowhill Aquatic Center,Outdoor,painted mural,,,,,,Male,,,,Art@Work Program (BOPA),,,,District 6,Cylburn,Pimlico/Arlington/Hilltop,,,,,,39.34856584547941,-76.6676414455,12/8/2022 3:06pm
SECDC,Felco Tower Mural,2018,4001 E. Baltimore Street,,Mauricio Ramirez,Mural,in place,Private Property,,,,,,,,Baltimore,MD,,,,,Outdoor,painted mural,,,,,,Male,,,,Baltimore Regional Neighborhood Initiative (BRNI),,,,District 2,Baltimore Highlands,Highlandtown,,,,,,39.2924517,-76.5635886,12/8/2022 3:06pm
,Finding Home,2018,745 N. Kenwood Avenue,,Nether,Mural,in place,Private Property,,,,Arts + Parks,,,,Baltimore,MD,,,,,Outdoor,painted mural,,,,Completed c. Winter 2017 – Summer 2018,,Male,,,,Coca-Cola Bottling Company Consolidated,,,,District 13,Madison-Eastend,Madison/East End,,,,,,39.29997,-76.57787,12/8/2022 3:06pm
,Maxinew Lynch Tribute,2018,2922 E. Monument Street,,Nether,Mural,in place,Private Property,,,,Arts + Parks,,,,Baltimore,MD,,,,,Outdoor,painted mural,,,,Completed c. Winter 2017 – Summer 2018,,Male,,,,Coca-Cola Bottling Company Consolidated,,,,District 13,Madison-Eastend,Madison/East End,,,,,,39.29925,-76.57586,12/8/2022 3:06pm
,Ode to Park Heights,2018,5322 Cuthbert Avenue,,LaToya D. Peoples,Mural,in place,,,,Art@Work,,,,,Baltimore,MD,,,,,Outdoor,painted mural,,,,,,Female,,,,,,,,District 5,Arlington,Pimlico/Arlington/Hilltop,,,,,,39.34799432176242,-76.68295353725593,12/8/2022 3:06pm
,One Way Up,2018,800 N. Linwood Avenue,,Nether,Mural,in place,Private Property,,,,Arts + Parks,,,,Baltimore,MD,,,,,Outdoor,painted mural,,,,Completed c. Winter 2017 – Summer 2018,,Male,,,,Coca-Cola Bottling Company Consolidated,,,,District 13,Madison-Eastend,Madison/East End,,,,,,39.30022,-76.57695,12/8/2022 3:06pm
,Reaching New Heights,2018,4800 block of Pimlico Road,Block,S. Rasheem,Mural,in place,,,,Art@Work,,,,,Baltimore,MD,,,,,Outdoor,painted mural,,,,,,,,,,Art@Work Program (BOPA),,,,,,,,,,,,,,12/8/2022 3:06pm
,Rocky Brown Tribute,2018,2929 E. Madison Street,,Nether,Mural,in place,Private Property,,,,Arts + Parks,,,,Baltimore,MD,,,,,Outdoor,painted mural,,,,Completed c. Winter 2017 – Summer 2018,,Male,,,,Coca-Cola Bottling Company Consolidated,,,,District 13,Madison-Eastend,Madison/East End,,,,,,39.29999,-76.57572,12/8/2022 3:06pm
,Rose Street Community Garden,2018, 2509 E. Monument Street,,Nether,"Mural,Landscape",in place,Private Property,,,,Arts + Parks,,,,Baltimore,MD,,,,,Outdoor,painted mural,,,,Mural located on side of Save-A-Lot grocety store across Rose St. from the garden,,Male,,,,"Baltimore Office of Promotion and the Arts (BOPA),Parks & People Foundation",,,,District 13,McElderry Park,Madison/East End,,,,,,39.29851410362151,-76.58164774199962,12/8/2022 3:06pm
,Seeds,2018,3000-3100 block of Woodland Avenue,Block,"""Ernest Shaw, Jr.""",Mural,in place,,,,Art@Work,,,,,Baltimore,MD,,,,,Outdoor,painted mural,,,,,,Male,,,,Art@Work Program (BOPA),,,,,,,,,,,,,,12/8/2022 3:06pm
,Stochastic Interactions,2018,670 W. Baltimore Street,,Eric Peltzer,"Sculpture,Kinetic sculpture",in place,State of Maryland,,,,,,10/16/2018,,Baltimore,MD,21201,"University of Maryland Baltimore, Health Sciences Research Facility III",,,Outdoor,stainless steel,,,,,,,,,,Art@Work Program (BOPA),,,node/9234197714,District 11,University Of Maryland,Downtown/Seton Hill,,,,,,39.289239542879635,-76.62656651084137,12/8/2022 2:54pm
,Tulip,2018,2922 E. Monument Street,,Nether,Mural,in place,Private Property,,,,Arts + Parks,,,,Baltimore,MD,,,,,Outdoor,painted mural,,,,Completed c. Winter 2017 – Summer 2018,,Male,,,,Coca-Cola Bottling Company Consolidated,,,,District 13,Madison-Eastend,Madison/East End,,,,,,39.29925,-76.57586,12/8/2022 3:06pm
,Waverly W,2018,401 Merryman Lane,,Post Typography,Sculpture,in place,,,,,,,,,Baltimore,MD,,Waverly Farmer's Market,,,Outdoor,painted steel,,,,Need to confirm year,,,,,,,,Approximate,node/4791979538,District 14,Abell,Greater Charles Village/Barclay,,,,,,39.328042357386906,-76.61090292428685,12/8/2022 2:54pm
,"[""Aaron LaCrate: Just a Kid from Highlandtown"" Exhibition Mural]",2017,3137 Eastern Avenue,,Aaron LaCrate,Mural,demolished,,,,Creative Alliance,,,,,Baltimore,MD,21224,,,,Outdoor,painted mural,demolished for new building (always intended as temporary work),,,,,Male,,,,,,,node/7835520567,District 1,Canton,Patterson Park North & East,,,,,,39.2862184,-76.5717015,12/8/2022 3:06pm
,[Cloverdale Park Mural],2017,Druid Hill Avenue and Druid Lake Drive,Intersection,"""Ernest Shaw, Jr.""",Mural,in place,Mayor & City Council,,,,Dalvin Wade Byron,,,,Baltimore,MD,,Harrison Sykes Brown Playground,,,Outdoor,painted mural,,,,"From BOPA's website: For the past 60 years, Cloverdale Recreation Center has served as a staple of support in West Baltimore for ages 7-75. Ernest’s team wishes to create a mural that expresses the joy that the game of basketball can bring to a community.",,Male,,,,Art@Work Program (BOPA),,,,District 7,Penn North,Penn North/Reservoir Hill,,,,,,39.31497166,-76.6424651,12/8/2022 2:54pm
,[Metal sculpture with silhouettes],2017,2601 Tolley Street,,Nicole Fall,Sculpture,in place,Mayor & City Council,Baltimore City Public Schools,"City of Baltimore - BOPA,Baltimore City Public Schools",,,,,,Baltimore,MD,,Morrell Park ES,,Morrell Park ES,Outdoor,painted metal,,,,,,Female,,,,,,,,District 10,Morrell Park,Morrell Park/Violetville,,,,,,39.26323912711355,-76.65133611488787,12/8/2022 2:54pm
,[Untitled],2017,3800 Mannasota Avenue,,Paige Orpin,Mural,in place,Mayor & City Council,,,,,,,,Baltimore,MD,21213,Mannasota Bridge (between Shannon Drive and Parkside Drive),,Herring Run Park,Outdoor,painted mural,,,,"Commissioned by Belair-Edison Neighborhoods, Inc. (BENI)",,Female,,,,NeighborWorks,,,,District 2,Lower Herring Run Park,Cedonia/Frankford,,,,,,39.324686267543804,-76.56261211084667,12/8/2022 3:06pm
,[Waverly Crab House Mural],2017,3400 Greenmount Ave,,Mike Thomas,Mural,in place,,,,,"Jimmy Li,Najee Haynes-Follins",,,,Baltimore,MD,,Waverly Crab House,,,Outdoor,painted mural,,,,"From BOPA's website: This mural is designed to support an important and thriving business in Waverly, the mural features colorful, eye-catching images of crabs, fish and shrimp, all sold at the Waverly Crab House.",,Male,,,,Art@Work Program (BOPA),,,,District 14,Oakenshawe,Greater Charles Village/Barclay,,,,,,39.33001,-76.60972,12/8/2022 3:06pm
,Break Through,2017,2411 Linden Ave,,Julie Horton,Mural,in place,,,,,Jache Haynie,,,,Baltimore,MD,,German Park,,German Park,Outdoor,painted mural,,,,"From BOPA's website: The Break Through mural is inspired by the sentiments of many Reservoir Hill neighbors. It depicts symbols of youth, potential, inspiration, hope, love, and growth. At certain points of the mural, the design shows a crack and breaks open - only to reveal more beauty beyond the layer. Like a tree that grows from a vacant building, the greenery that surrounds our mural is an ode to the ideas of good, life, and new growth. Nature, like love, always finds a way.",,Female,,,,Art@Work Program (BOPA),,,,District 7,Reservoir Hill,Penn North/Reservoir Hill,,,,,,39.31438,-76.63573,12/8/2022 3:06pm
,Carey Street Pocket Park,2017,N. Carey Street and Riggs Avenue,Intersection,Nether,"Mural,Landscape",in place,Private Property,,,,Arts + Parks,,,,Baltimore,MD,,,,,Outdoor,painted mural,,,,,,Male,,,,The Gutierrez Memorial Fund,,,,,,,,,,,,,,12/4/2022 7:47pm
SECDC,Chesapeake Sunset,2017,418 S. Conkling Street,,Adam Stab,Mural,in place,,,,,,,4/1/2017,,Baltimore,MD,,,,,Outdoor,painted mural,,,,,,Male,,,,,,,,District 1,Highlandtown,Highlandtown,,,,,,39.287007,-76.567397,12/8/2022 3:06pm
,Dark Matter,2017,2524 Brookfield Ave,,S. Rasheem,Mural,in place,,,,,"Emma Derr,Melku Tafari",,,,Baltimore,MD,,,,,Outdoor,painted mural,,,,"From BOPA's website: The mural depicts a combination of African American culture, sci-fi, fantasy, and mysticism that reimagines Black artists in the future. It celebrates artists as creators, keepers, and innovators of culture.",,,,,,Art@Work Program (BOPA),,,,District 7,Reservoir Hill,Penn North/Reservoir Hill,,,,,,39.31645,-76.63419,12/8/2022 3:06pm
,"Learn, Grow, Evolve",2017,3198 Old York Road,,Megan Lewis,Mural,in place,,,,,Kenneth Clemons,,,,Baltimore,MD,,,,,Outdoor,painted mural,,,,"From BOPA's website: While gathering information from the community, residents talked about the past, present, and future of Waverly. Community members commented about witnessing change, but wanted to see more. The artists determined that in order to see change you must evolve. In order to evolve, you must learn and grow. A Black woman is depicted as the narrator that represents the comforter and healer. She is leading the way, as she carries the culture of her community and wears it proudly. Follow her lead and evolve.",,Female,,,,Art@Work Program (BOPA),,,,District 14,Better Waverly,The Waverlies,,,,,,39.32713,-76.60878,12/8/2022 3:06pm
SECDC,Milton Avenue Park,2017, 403 N. Milton Avenue,,Nether,"Mural,Landscape",in place,Private Property,Southeast CDC,,,Arts + Parks,,,,Baltimore,MD,,,,,Outdoor,painted mural,2017 Spruce-Up grant project,,,,,Male,,,,Baltimore Regional Neighborhood Initiative (BRNI),,,,District 13,McElderry Park,Patterson Park North & East,,,,,,39.29577103358003,-76.58188115716858,12/8/2022 2:54pm
SECDC,Patterson Park Public Charter School Gym Murals,2017,27 N. Lakewood Avenue,,,Mural,in place – unconfirmed,,,,,,,,,Baltimore,MD,,Patterson Park Public Charter School,,Patterson Park Public Charter School,Indoor,painted mural,,,,,,,,,,"Baltimore Regional Neighborhood Initiative (BRNI),Southeast CDC",,,,District 1,Patterson Park Neighborhood,Patterson Park North & East,,,,,,39.2928293,-76.5786542,12/8/2022 3:06pm
,Talking Hands,2017,3001 Vineyard Lane,,Iandry Randriamandroso,Mural,in place,,,,,Giulia Livi,,,,Baltimore,MD,,The Book Thing,Back of building on garage doors,,Outdoor,painted mural,,,,"From BOPA's website: This mural represents the many sentiments expressed from local residents during community interviews. The artists also wanted to promote The Book Thing of Baltimore, an organization that allows people to receive free books to further their knowledge and education. In the design, they used letters from the American Sign Language alphabet to spell out the words “BOOK THING” and utilized the palms of the hands as a vehicle to share key themes from their community conversations with mural viewers.",,Male,,,,Art@Work Program (BOPA),,,,District 14,Abell,Greater Charles Village/Barclay,,,,,,39.32523704608828,-76.61004048438618,12/8/2022 3:06pm
,The Dreamer,2017,3127 Greenmount Avenue,,LaToya D. Peoples,Mural,in place,,,,,Jerome Chester,,,,Baltimore,MD,,,Back of address facing Homestead Avenue and Waverly ACE Hardware,,Outdoor,painted mural,,,,"From BOPA's website: The mural depicts a youth in deep contemplation about the Waverly neighborhood. His thoughts are represented by colorful shapes, where scenes of Waverly through time are superimposed. The mural shows some of the rich history of Old Victorian Waverly on the left, a transition through to the present, and a road leading to a bright future!",,Female,,,,Art@Work Program (BOPA),,,,District 14,Better Waverly,The Waverlies,,,,,,39.3269889055586,-76.60876180936887,12/8/2022 3:06pm
,Whitelock,2017,701 Whitelock Street,,Gary Mullen,Mural,in place,,,,,Liz Angellatta,,,,Baltimore,MD,,Tune Up City,,,Outdoor,painted mural,,,,"From BOPA's website: The mural depicts the beautiful community of Reservoir Hill in the early days. The artist came up with the design using input from the community and the building owners. History, music, and the image of an old car were used to help communicate the different uses of the Tune Up City building.",,Male,,,,Art@Work Program (BOPA),,,,District 7,Reservoir Hill,Penn North/Reservoir Hill,,,,,,39.31429,-76.63049,12/8/2022 3:06pm
,Wisdom Wall,2017,W. North Avenue,Street name,Iandry Randriamandroso,Mural,in place,Private Property,,,,Kenneth C. Clemons,,10/1/2017,,Baltimore,MD,,,,,Outdoor,painted mural,,"IMG_8235.JPG (https://v5.airtableusercontent.com/v1/13/13/1670544000000/Rqu2_HQc-hhryXTfNjhbmw/MTmXm258Xw6If6yJBrPFD8f0FMo9bo9hYMkv9YoHfjdgO06Ows-baPlEhVxceG7dhDN1nCOjzAlyR9QuZylUwj4bwVT5pEn_mpGkaDFd2-c/39rImCa1fHhPp5b11qSiXDyqSWlL83VPBJ1OtDO-5-o),IMG_8236.JPG (https://v5.airtableusercontent.com/v1/13/13/1670544000000/pAfu6WdI5EqOcYqiHL7dXQ/inVqbn45SdMuAKOZS6pE8PhS-_6y50y8rw1tihw710C7uoYW4aCRCTMKhIkTPXPYMc7mIHgDTlsDYKbl5W5I401h-jFRZ7Wh6ndsw80wKPc/eS95cQbBbkxGV48A76mPBy1ihbJ3RuqkDRu2MKBqN0g),IMG_8238.JPG (https://v5.airtableusercontent.com/v1/13/13/1670544000000/onKuYBJfIri6__vd_q5OnA/b5dgd3fDzGzvHqSCTLbPk_Fy-_h_EkYa39GJyC1_y5iXFkzJ1kCyT25LoRCeJSTQJXN_m6_88LiFZA_ZhZI4s0c9ogEdJfKvxAjePHKiM8s/U8Wch81IKTxr1wG5cqutasYacyjSupoH16djAPQpawQ),IMG_8255.JPG (https://v5.airtableusercontent.com/v1/13/13/1670544000000/iyUOXECOSfELGdvvIeZlRA/7L5ujq7HzbiclOJh1pRtIhj3-BhoIfMcJOq9E2VteRGMJw28gOQsf6e4XohAOs9in2oCqy0viqBE5eQugoWaXCTeX-QB1_piiJbsCEjqPDI/53nPvLI39WUqLsU9qfe8_ljOFQECk_hm-9MRaL0itpg),IMG_8263.JPG (https://v5.airtableusercontent.com/v1/13/13/1670544000000/yKMLeqaMzl14kSBN_aoQfQ/Yl0Ze5uKia691-7KuKU2xTZ2JJMVqPkUtGSdhH2TH6AFuBAP1JEpoST0F-Uy8jAFacsrP19qqOsABSgi5bPO81KOvtXsBuxSISW_se5anvE/yHXgQC0843VdCuF2zxRJV64ueIfwInC4c-hz60bzWgU),IMG_8267.JPG (https://v5.airtableusercontent.com/v1/13/13/1670544000000/Uyb69szhVNNV6UPX2TUNbA/nIpvBRYXzPz17hfLPKTbpbEi0Qq_4eSuYwK7KZFuPI-Ce-KRLCi7jUdzW2pvcKCb54yAt5AnihRt0gmdzK3TSOBkUJW5bZpjQuQAsxtD5mk/zpNrWftVpcqdBFWhfedFgF4pQrz83agxvZ3TTHAOUPU),IMG_8273.JPG (https://v5.airtableusercontent.com/v1/13/13/1670544000000/cKZ-e21-N9M-cbxHbzPADQ/BwXDuJ6raFV4RCziYbM1tmMI2aD7eSXyfa7gPCXB8KgApEOYx_HueyV1R0zjkH37EKh5ogyg-SRcwcIYLyP7u0ATR247CQ7RGsIzdAQoZ-o/hug2wJUxTHfYAayRpuu5oEK-fYTZKyC07MO40SdiqYo),IMG_8276.JPG (https://v5.airtableusercontent.com/v1/13/13/1670544000000/slrvIPyJCJhTnBoZrMEGPw/0Vxm13SLGUkbYtbM1-ab2sD02ul7tYFYstDqoqw0Jzk092eT9syD0Si_IyUaGuJiBvS2NxEJNl04petocLNZRepub8GPnAnjkkrNlkPgl3I/7adSJVvhr7usFD066F8OsoDlAmEjUPEZCplQxJwALH4)","Elizabeth Ann Seton,Matthew A. Henson,William S. Baer,Robert W. Coleman,Fannie Jackson Coppin,Frederick Douglass",,,Male,,,,,,,way/546472768,District 7,Mondawmin,Greater Mondawmin,1004,,,,,39.30963,-76.65640,12/8/2022 3:06pm
,"""Bold Baltimore""",2016,S. Hanover Street near W. Cromwell Street,Intersection,Section 1,Mural,in place,,,,,,,,,Baltimore,MD,,,West side of embankment alongside S. Hanover Street facing City Garage ,,Outdoor,mural,,,,,,,,,,,,,,District 11,Spring Garden Industrial Area,,,,,,,39.263424919475526,-76.61479725518802,12/8/2022 2:55pm
,"""Weather the Storm""",2016, 428 E. 25th Street,,Nether,"Mural,Landscape",in place,Private Property,,,,Arts + Parks,,,,Baltimore,MD,,,,,Outdoor,painted mural,,,,,,Male,,,,Concerted Care Foundation,,,,District 12,Harwood,Greater Charles Village/Barclay,,,,,,39.318394436778334,-76.6101094156574,12/8/2022 2:54pm
SECDC,[Horses],2016,3817 Eastern Avenue,,Pablo Machioli,Mural,in place,Private Property,,,Southeast CDC,,,,,Baltimore,MD,,,,,Outdoor,mural,Created since 2014,,,,,Male,,,,DHCD Community Legacy,,,,District 1,Brewers Hill,Highlandtown,,,,,,39.286016,-76.564534,12/8/2022 2:54pm
,[Robert W. Coleman Society/The Quiet Place Garden Mural],2016,2000 N. Smallwood Street,,Bridget Cimino,Mural,in place,,,,,,,,,Baltimore,MD,,,,,Outdoor,painted mural,,,,,,Female,,,,,,,,District 7,Mondawmin,Greater Mondawmin,,,,,,39.31120536994752,-76.65349888782072,12/8/2022 3:06pm
SECDC,[SECDC Transit Placemaking Mural],2016,3401 E. Lombard Street,,Pablo Machioli,Mural,in place,Private Property,Southeast CDC,,,,,,,Baltimore,MD,21224,,,,Outdoor,mural,,,,,,Male,,,,Baltimore Regional Neighborhood Initiative (BRNI),,,,District 1,Baltimore Highlands,Highlandtown,,,,,,39.2912366,-76.5691736,12/8/2022 2:54pm
SECDC,[SECDC Transit Placemaking Mural],2016, 2053 E. Monument Street,,,Mural,in place,,,,,,,,,Baltimore,MD,,,,,Outdoor,painted mural,,,,,,,,,,Baltimore Regional Neighborhood Initiative (BRNI),,,,District 13,CARE,Oldtown/Middle East,,,,,,39.2985162,-76.587996,12/8/2022 3:06pm
SECDC,[Tench Tilghman E/MS Mural],2016,600 N. Patterson Park Avenue,,Iandry Randriamandroso,Mural,in place – unconfirmed,Mayor & City Council,Baltimore City Public Schools,,,,,,,Baltimore,MD,,Tench Tilghman E/MS,,Tench Tilghman ES,Outdoor,painted mural,,,,,,Male,,,,Baltimore Regional Neighborhood Initiative (BRNI),,,,District 13,CARE,Madison/East End,,,,,,39.2980741,-76.5853071,12/8/2022 3:06pm
SECDC,Alfie la Quinta Estrella,2016,3325 E. Baltimore Street,,Pablo Machioli,Mural,in place,,,,,,,,,Baltimore,MD,,,,,Outdoor,mural,,,,,,Male,,,,Baltimore Regional Neighborhood Initiative (BRNI),,,,District 1,Patterson Park Neighborhood,Patterson Park North & East,,,,,,39.2923855,-76.5695974,12/8/2022 2:54pm
SECDC,Becoming: Harriet Tubman & Terri-Michele,2016,,Missing,Kristen Brown,Mural,in place – unconfirmed,,,,,,,,,Baltimore,MD,,,,,Outdoor,painted mural,,,,,,,,,,Baltimore Regional Neighborhood Initiative (BRNI),,,,District 13,McElderry Park,Madison/East End,,,,,,39.29704,-76.58193,12/8/2022 3:06pm
SECDC,Becoming: Jackie Robinson & Messiah,2016,,Missing,Kristen Brown,Mural,in place – unconfirmed,,,,,,,,,Baltimore,MD,,Center for Grace-Full Living,,,Outdoor,painted mural,,,,,,,,,,Baltimore Regional Neighborhood Initiative (BRNI),,,,District 13,McElderry Park,Madison/East End,,,,,,39.297869,-76.582662,12/8/2022 3:06pm
SECDC,Becoming: Malcolm X & Sadeeq,2016,625 N. Milton Avenue,,Kristen Brown,Mural,in place – unconfirmed,,,,,,,,,Baltimore,MD,,M&M Coin Laundromat,,,Outdoor,painted mural,,,,,,,,,,Baltimore Regional Neighborhood Initiative (BRNI),,,,District 13,McElderry Park,Madison/East End,,,,,,39.298365,-76.582078,12/8/2022 3:06pm
SECDC,Becoming: Martin Luther King Jr. & Davon,2016,,Missing,Kristen Brown,Mural,in place – unconfirmed,,,,,,,,,Baltimore,MD,,,,,Outdoor,painted mural,,,,,,,,,,Baltimore Regional Neighborhood Initiative (BRNI),,,,District 13,McElderry Park,Madison/East End,,,,,,39.297535,-76.582668,12/8/2022 3:06pm
SECDC,Becoming: Rosa Parks & Gift,2016,,Missing,Kristen Brown,Mural,in place – unconfirmed,,,,,,,,,Baltimore,MD,,,,,Outdoor,painted mural,,,,,,,,,,Baltimore Regional Neighborhood Initiative (BRNI),,,,District 1,Patterson Park Neighborhood,Patterson Park North & East,,,,,,39.294307,-76.581749,12/8/2022 3:06pm
SECDC,Becoming: Sojourner Truth + Abria,2016,814 N. Collington Avenue,,Kristen Brown,Mural,in place – unconfirmed,,,,,,,,,Baltimore,MD,,MICA PLACE,,MICA PLACE,Outdoor,painted mural,,,,,,,,,,Baltimore Regional Neighborhood Initiative (BRNI),,,,District 13,Middle East,Madison/East End,,,,,,39.30012,-76.587057,12/8/2022 3:06pm
,CHM Youth Mural Project,2016,Harford Road near E. 25th Street,Intersection,Mural Masters,Mural,in place,,,,,,,,,,,,,,,Outdoor,painted mural,,,,On north and south side of Harford Road Bridge over railroad tracks,,,,,,,,,,District 14,Clifton Park,Belair-Edison,,,,,,39.31721252963474,-76.59471070770522,12/8/2022 3:06pm
2016.001.AaW.ErSha,Cosmogram,2016,1707 Pennsylvania Avenue,,"""Ernest Shaw, Jr.""",Mural,in place,,,,Art@Work Upton (BOPA),"Hee Jun Ahn,Asia Carr,Kaliyah Davenport,Mya Dorsey,Shannon Green,Donna Lindsay,Malachi Pearson,Kaiylah Phillips,Deshawn Richards,Rickeira Robinson,Asia Skinner",,6/1/2016,,Baltimore,MD,21217,,,,Outdoor,painted mural,,"2016.001.AaW.ErSha-Photo2016Larson.jpg (https://v5.airtableusercontent.com/v1/13/13/1670544000000/W6i2qXYfle3qAyZVCxnD9g/gFK6xgZL05kCHA_aSv3EKm7Qdns8dUcaTtZZghMByTGFMazidYccy2iZ4ZgItEPs9lVg-mRzv2KebfpncTxGew/t_5PXrAI-uYALpJwpu4cSkSgyAw-ft2PbCi14azmhJQ),2016.001.AaW.ErSha-Photo2016Larson (29).jpg (https://v5.airtableusercontent.com/v1/13/13/1670544000000/fFMn9nOCPJ-iVki73C0kUg/fg5UOSlAbCN0wejzaZfL7WlCOd7kDYE9ZLrnBxrxy95_cQHlY8XdLqHHMcrTPQ39fkjPBHC1AAy3-uPoOV29jO4eutwV2ULTAwD4and8gNo/uepCk3mJl9Cjk1hlumfYfJTpQXKb2QVKlMyvU2zH3Q0),2016.001.AaW.ErSha-Photo2016Larson (28).jpg (https://v5.airtableusercontent.com/v1/13/13/1670544000000/l4P1tIv-YRO0KPmAVzrvjQ/9im6BJuwuZ0ZLJ13kcbXo_7Y-BAFQpJ444il__6X44XMwKTlYy1jVzNc1OkQne5whvkqli9GeqftqGCx1paTIr9wrvFQ8wPGWNKE9CUmq_k/w-RjUBVWBh933sCFgmJzrEAyve7ONBwgxpfPJ-k63Ew),2016.001.AaW.ErSha-Photo2016Larson (27).jpg (https://v5.airtableusercontent.com/v1/13/13/1670544000000/UlJF2nsFrAnabmxQsjnAug/_5aLl87QUtenZKf6_EDY1Q6HbltospHou9p3Fm8_hltLtxR3CbkgXJYmzlPADgo_M4Np-ofxgIJZWWHOCF2ZUUNw4TwQ8j4917TmQ0eJfIg/7g2eSY-k5ZXZJawhbiI1f3dMpCJ3EXNCd4XEAzimn3w),2016.001.AaW.ErSha-Photo2016Larson (26).jpg (https://v5.airtableusercontent.com/v1/13/13/1670544000000/JU7cg3_xHp0h1zhT_SraMQ/1AOzvRY9UfmzB6IqW6xuSxgk44zFfMGqcb_bkKuQkvj5gY1_nPtEycOmonItOYCQ5Hw7_Fqa64bem9YI1DxHvRnAg8_xQQQjK6jgPsWUUHA/6zMh9xhe3BV8QLywkoDx32cJHSrfLmPcEF5OWhRG1MY),2016.001.AaW.ErSha-Photo2016Larson (25).jpg (https://v5.airtableusercontent.com/v1/13/13/1670544000000/nWrRKxOr5nd8O7ZMZSjd6g/DyLIZrqEbAXjD9Yzjp8SFFy8yWQ0ASBEA-9ZMei1ML3g12I_k1xqCIRyCl_oxRlT4ebnnv_t3Y8Gdiy0Tj3YpYVOaW50NveE-WdDjunTpqs/yu7uyVbwVApKoym88K9J1GjGWcfZkWxI-OwhCvTSTEk),2016.001.AaW.ErSha-Photo2016Larson (24).jpg (https://v5.airtableusercontent.com/v1/13/13/1670544000000/yEqJeDs4YssBi41_mXGFWA/aStMl86GiTe14_ThpTKoYcNsVvXIGIkZ5_qtyzPLRAyTInfGQa7PscienYvUJyeLCVD6ouaynSninyfnMifF6P1R5JGkzIz6qDx3G01144g/xrq63ne7G0_WEtgGZK__BWnwk8raHzA3-OtRgkqcRTQ),2016.001.AaW.ErSha-Photo2016Larson (23).jpg (https://v5.airtableusercontent.com/v1/13/13/1670544000000/5DPX4eU6i2CZkB_XTJ2Dow/s7IcdV4X-PZyjRThdbuM5rDvaEuRAdNx0yD3kZ6bbvbuXcl0gP4y6Cmzk7Ict4qzHuFiGOuPbu4BMs2g_IlrmdoGAhKIoCHPCkQOR3NuPkc/2JUte-0gFhVFqVao_zaMaJVAUm3oxSg232GjjnlubHs),2016.001.AaW.ErSha-Photo2016Larson (22).jpg (https://v5.airtableusercontent.com/v1/13/13/1670544000000/sSGFXloncOILs0-hGLs6eQ/_95-I7j20kAUXE3z13nTuyP6K7HNCGsyIWATpcYNvqvF_IJs4DJUOBl7qGoHgbv38n2N7zVFkvmMkOGGYmiHYMA59MvACNCGQpjHB7LTzL0/LD8D3q1qWIzK7UwPTffWxymVjxFAlWDTEjGRgSgshd4),2016.001.AaW.ErSha-Photo2016Larson (21).jpg (https://v5.airtableusercontent.com/v1/13/13/1670544000000/fvOrqIFa9ztloMB5JBvj8w/RUMqvWfqP5KwbW035ZvHzDCOOJ7oAYPoxBggkxssE_Z0-rRWkWF8_kxEWWpGf_nD24i12dkj6qvvE73UTHogSa9Q6hlDGjYhtApowauCmbM/OUJrrm-mZO0HJd9PVDB666wifW_9QTzMJAfR-FmumYg),2016.001.AaW.ErSha-Photo2016Larson (18).jpg (https://v5.airtableusercontent.com/v1/13/13/1670544000000/7AqKY_9b3s-o-apLybxcTw/ft_nXycTslAltHzOEegPFXN6Tyw5CBVNI_zS80iZbr-yxrxNXIMgkUeZwycwYAgD5D-ANRO_8pNVan96RlPQvLkO4X0xpH2gQZwX5A_oh1Y/4DYmfayG-M-2lRZdr81ektB1h2ERVN4baqWrO5mdzEU),2016.001.AaW.ErSha-Photo2016Larson (20).jpg (https://v5.airtableusercontent.com/v1/13/13/1670544000000/m3GRgEzmTyW8xM_VJYVjUA/QnZWaKbuopmnBmT-i3vOPrp0cH8fQb8xuqKNK4oohDQB2IBgXOcSg1hX42C-lcxL3879cc2FU1htv7MeuQBtMKexvKa-xUC58XFxv9Oh6Zk/wP0S6Xhd7Xz1huAf1koY0TBROjWB0KmGv5juXT1liM8),2016.001.AaW.ErSha-Photo2016Larson (19).jpg (https://v5.airtableusercontent.com/v1/13/13/1670544000000/BX3d7-x2mPqWOaHgQz2HGA/nx1FPGoJQMo28yJ22zpvf8McrNASM9hg-Dv3LHQ4pla7HboODsaTUuUWijukSdXeOYCA3kAditOZ2KN_zk8hoJg-cUiIsFLmYcLBVqznGpg/iFypn7OyqkMlluFHgHhm5FZIkJb6ly27exqTYVT8BB0),2016.001.AaW.ErSha-Photo2016Larson (17).jpg (https://v5.airtableusercontent.com/v1/13/13/1670544000000/5Qc-9E-bC8UGOvRcuxIOPA/vIfDNxiLHQdyh7bPafxWu264rqrMd3fer2dGtv9kv0471jCEOoar8kbinsoV0a_cP8nRo9SAypqIaBYHbiR9bQ_3ctbjpdAn5vAwDvSdSFk/31KZfCaJwSFhg0E16Vk_Cdt8Fmd32VMguVYOCj57YC0),2016.001.AaW.ErSha-Photo2016Larson (16).jpg (https://v5.airtableusercontent.com/v1/13/13/1670544000000/PtVVUIuSN4WnGsziYicNRg/odXOVf3n9quwCvvRFcjaQtLnwmENQdBX3CAL6XyydAD-woFm5PECFtj_m5EvBCQvmtRWia3OautIsnq701jqb8Un1B2V3obgxPuAgboYwM8/7WLXSrYWm6xTzgZ68iaNEzZFFxBoYMMHJjsLFPUKfNM),2016.001.AaW.ErSha-Photo2016Larson (15).jpg (https://v5.airtableusercontent.com/v1/13/13/1670544000000/0IicaFL3u1T_H7iJpnlhJg/MRZxk4MhXsMl9L4qevyJ6hgb1t268YYNkolJ2eIwOfurr2-ua8OMZGMkXIIiSt9U8l8EbI3BHL4k_pbucXD_ijx5KrgKosAH5XTBRWaIpe8/PUnqJmy4lQA8Kx29GZotbUY6CCp2JbPscoVjcYRu3e8),2016.001.AaW.ErSha-Photo2016Larson (14).jpg (https://v5.airtableusercontent.com/v1/13/13/1670544000000/w3sUsCUmahhSgBC7cG0ABw/o5xiYSSWPtsLBk1Jq6MHbjcvxYt3-KokoGPE43CiugokM8-XZv24kReuuXO64b8YDcLH6WhLmEKEJPDt9CnGdTQVhdssIZM90jMjcyw0Mpc/yoxAPAcbCQTOQ-RRLD9tzGrndSK-AI2S8lSs34xIkxM),2016.001.AaW.ErSha-Photo2016Larson (13).jpg (https://v5.airtableusercontent.com/v1/13/13/1670544000000/hmY60qP0kyRUbXkQC35GeA/0Hc--yTZlsjzZMoyhJzIyfCa1IN8GwShmxHzRQ5kErpvqLdg9oUgaf13MYg3vGc6UWJbq38fnLaie3_bta9-SE-7bxH2Bbj9i_sdLNJtpKc/DtqplwuZqm39fkh_QwNo0qeXVQYBVjqcbacin-lAMUM),2016.001.AaW.ErSha-Photo2016Larson (12).jpg (https://v5.airtableusercontent.com/v1/13/13/1670544000000/bfVs1COlK-GAkPQtG1E_6g/ltwTTaaBgDKJ8KVKekQXYYbmi4mUSw5Rcc2tn5prxyhGpCobHVvFj_fxYFYMqIJpV3EY_Rj0Y73sJ4JniMiC_ucIDZuEu0JB0QsRrnpZHO8/9RHqznLr5Sn2Bsr3pnJPEM-O0EHk-AjHtu26ohUwod0),2016.001.AaW.ErSha-Photo2016Larson (11).jpg (https://v5.airtableusercontent.com/v1/13/13/1670544000000/HFichwDQQhVZcp7xmEdM9g/YsLthK1Gb2paa2zmWMEvbc5OQa0-5uYrUazSVERATmJdz2L_CyGvGfKVtyhy9mczkJeq2fkPVuxi-HuJvXheBlJ6D8Qrx_Yv-xNuXR_MJKU/HpLz2IF3N87rGujiF0-BdWKVDM6hHBzCB3eZlYd6AK4),2016.001.AaW.ErSha-Photo2016Larson (10).jpg (https://v5.airtableusercontent.com/v1/13/13/1670544000000/6E3j4iiRpLGSduZB6rUc8Q/Su_gZvOM0xQaZDA8ux6kq6UDzLPgmhfhT-8AxBVDDNxW3Z4KKEiKJk-I_ptRkt8N6hMwaotRQJttx1pvX83aifC3X-ukn-qyTVy3_b7mLOk/p2BGB6ge00VVa39KNZJZRnfFyPEBilaYlitt_jsc1dU),2016.001.AaW.ErSha-Photo2016Larson (9).jpg (https://v5.airtableusercontent.com/v1/13/13/1670544000000/emhZ1R4V9CHYZKnLcoRHrg/6qhY65IHJKYik28NcyWx4xI984dXQXc680mGoALXDFtUxwcq0ziIZ6KkwIfecRxrgxpXO2Z5vuD6LzV35dmaxw/3s78yfp0LyBHd7CL5iXSdm6eNBLS6CK43yyxEco874I),2016.001.AaW.ErSha-Photo2016Larson (8).jpg (https://v5.airtableusercontent.com/v1/13/13/1670544000000/WDoZGWmaVfKv4uL1ufZzgA/UOUVYuysbGC6hjPVs9jMKCFJ2SMCY43SVx97E69vls6FOhm4Kw2jmZaKaL0-nkXmFXSpC1ndztZxAd7gSKk_qQ/Qgeb1M02K8JxfPp_ufOEXjPUVyfCxQfeiO-mbKHNN6Y),2016.001.AaW.ErSha-Photo2016Larson (7).jpg (https://v5.airtableusercontent.com/v1/13/13/1670544000000/oGzK6i7eURsMR1k8FMFOlg/mn_MuyHCxE8t3bxuUNng3LkSJQllRI1pyWyjsvvfqDSprTSWHgGSylXGiE7GsppnygY3Rt6nnrCS0ZiOGlDX_w/7JlpssYw2EtGcP1nSBorJ_0NEc3BnotMhD0HfmVBiCs),2016.001.AaW.ErSha-Photo2016Larson (6).jpg (https://v5.airtableusercontent.com/v1/13/13/1670544000000/OBsnbKAZcFv-ZHGs5tlXjg/oyAni-k1GyjkBkoPsZxSV61AR34NbSZJcZ1pjHKeg6fSBxWUYl1sbH7t1GaUoqbuUtpbkFb7LkdfX_iudhBbRw/F3S-ug-5Ot8WGLcnZH6SmrqJ-SqmDmOFpsLAigy6or8),2016.001.AaW.ErSha-Photo2016Larson (5).jpg (https://v5.airtableusercontent.com/v1/13/13/1670544000000/tSAZf-TwN_2yD_w0Po_0LA/VR8fAwJgl-gXP-mdlQIiOGppphhp8HWmyAEOkglfigq7X6Vh-5a0NBQzmDLUVzHOtTGh_9g-4r9O4UspQC7_Nw/jqoJVk-Uo_X4bMiATlBfdlydgGf3jwfakTigBT8_bT0),2016.001.AaW.ErSha-Photo2016Larson (4).jpg (https://v5.airtableusercontent.com/v1/13/13/1670544000000/wgF5MFRbrHpFUwbXkQO4Ig/bqO5NciX2J1c8rBdfl1EgOWFhjd0eZrlT-aRWZ-FI77PhHKzGBLdF4-fQIkUG2N4dg3rajnFN1EvqPPOP0RrlQ/w6gjFGYqUfkmeS3eeEqXMI2VJYVHdSS2Nf0TpCloJ-o),2016.001.AaW.ErSha-Photo2016Larson (3).jpg (https://v5.airtableusercontent.com/v1/13/13/1670544000000/14ZUiUZ0nS3rbNvkw3jG_A/b2zhzIsSqwj7BOkz30YLMRdmWOEYORWgVVCEclIxA9LqANUjfITvRMfsMms3WdcKev-Q79VDqtTM6Hoed8T8bw/mNg_QhFbFEHvup8y0N_No-_QjQMi1trCTKEcmaii99I),2016.001.AaW.ErSha-Photo2016Larson (2).jpg (https://v5.airtableusercontent.com/v1/13/13/1670544000000/x8LPhNzZGjP-7gF5AH1TAg/zE8t3pkMHOMh_mcrGkmnY-PTolUr0RgVuNENUDIMfrIne4dJ_OTuvuUHQq7QcCKwQX5xTO6003WC-sDZ35XRNg/inX2ec8-XYqW7kZzK3Oup2H8EesBEC8IBMpz6bKDUOE),2016.001.AaW.ErSha-Photo2016Cauldill.jpg (https://v5.airtableusercontent.com/v1/13/13/1670544000000/Jxy-R31I3qLqaMt3R2jrFA/67rnPwCQQMCQeZaNpHMEevZjqaAgH5lSslitl1U2Pgj3b0J-paUQGHWNhmEW2VlHjLcJq_y5NwSdmbKv7qLcFA/Pu_T75KzGK8cHy_yrylzyqh2pZkqQSYtIo-vP9lrIbU),2016.001.AaW.ErSha-Photo2016Cauldil.jpg (https://v5.airtableusercontent.com/v1/13/13/1670544000000/Qw63xjUB1T1_JExzc7SalQ/gX4H8MaZvZze0NAvpJiIEx5umteQoMH1zZAwrkSLllKSqzOjFmBqCRgkAlgJvbKo_yGp7o1PHl15NNiu6Bz6Rg/JakSNuj05Bw70AvYT6DDfmQ5v4lVZLu1cw8wIoFDyvs),2016.001.AaW.ErSha-Photo2016Cauldil (11).jpg (https://v5.airtableusercontent.com/v1/13/13/1670544000000/_ZedmA9EzY7KyTAUljRMoA/2hmBOV3grVGo2m3oZ8HnHh3fML6cUAs-_EynOiAMf8uaDtRNFB25PRLE4egxrw1TuAYVRuFNmLldrFZODsll4SKueUm3XORGu2KRDFKuovY/tqi_g_IhOoY93AKt083qPeGv8Ivy3CH_rivyAXmGds0),2016.001.AaW.ErSha-Photo2016Cauldil (10).jpg (https://v5.airtableusercontent.com/v1/13/13/1670544000000/xzOqql0IJDsbrD7qxn_Cuw/YBJUvbixKTJl4_q24dx5w-xEBa6unuLrTnfvV1y5phRKJL7w9iu45GvxNO_Hmk04gssR5uAUzUHymixzzX6ug9iXvYSWYNqRSHzx85oQfjo/_VyJeb3EMwzc7JqnKzQNf5XrRN_qAM66jobeixd-jOo),2016.001.AaW.ErSha-Photo2016Cauldil (9).jpg (https://v5.airtableusercontent.com/v1/13/13/1670544000000/TU7ck9-tTBZDe6rK_MQNyg/RSnWClRihuJuv8c3r-hP15GGFA5G9GItxg_-DbTMiAjEiAKaBbk-6HF_V4tCYFk-kFn-YIeT_kkbtx3w1oPw8rxDrzGzryyZNa6TbZ2aBms/2CXcDU2tdZ5O1UTpgSyb8q_TNS-QFBsI0ALEbkMJtKs),2016.001.AaW.ErSha-Photo2016Cauldil (8).jpg (https://v5.airtableusercontent.com/v1/13/13/1670544000000/K0d0MPAlafPOo5VYRVf_Ag/NyDTiF3hDPdGKyBSKzs0qhaX5OFrBVTfG9aK930qiwv1-LUT4zFOEgwcWarV0YtK7WM92JT_bmAnMqRc3_xxquCBoCraYZXFOTOPBqaqACk/LH7K9eXSgTNCCa97cL2OLle-WTWZuc6JHOtRQYmYId8),2016.001.AaW.ErSha-Photo2016Cauldil (7).jpg (https://v5.airtableusercontent.com/v1/13/13/1670544000000/IgnvzZvCOiY_zVDq8xXPSQ/igAklkylb0nkjbW-SMCeJdfVrPnXb06eyo7YX07vLBXwiLR3dT4ZU5V3mE4t6c1zyvu1WuSatNP2zP-1jesRZ32161ZlgbnFuvNhv9rCP5s/jN9y8MAZ6xMOgn7eo9HWdiYOb3AmDq_AX7-YGYv956Q),2016.001.AaW.ErSha-Photo2016Cauldil (6).jpg (https://v5.airtableusercontent.com/v1/13/13/1670544000000/j4zXD4kPNeOjtDDqcl-MFw/mljlPYcnAKL9NKCh4JhxfCyPlw7KTA_okmHYgwiT-sNGFjMbiB1J0JDCNMN7nHz7GflPlJp9UTF0tgUvpSt163WMBowZlnxtmn-RhKYp4VI/nXRNyuvWnO-lBBnOhvKon9_3hSACAyJM6ihtkKrEQk0),2016.001.AaW.ErSha-Photo2016Cauldil (5).jpg (https://v5.airtableusercontent.com/v1/13/13/1670544000000/gfOkt7qjLRn_foycq8hB3w/e6TtQCxGEjnTuKOcrLmUN6eZHYM_gZH_4QCl8B7t3GOuuu8UiZtvLeqIPuaG0gDqiCI-HkwfZ78_Oqn-jUt_V-eidpfG6DOAm_JrgGUIZss/4iSBJKiDjrF-bh8E5tWMy24rodSXDCB9aPxE7IoRjVU),2016.001.AaW.ErSha-Photo2016Cauldil (4).jpg (https://v5.airtableusercontent.com/v1/13/13/1670544000000/AoIPzIQProAZ5Y19QE4GqQ/5Mmzzk6QqjBBZCipeW10zv2RIiK01LFS5HLybD03Hi9s5zrV-RkyTAF5VEzCHQs3nM5gwTR4vBEx0DfM5buTSC90w9EimU7ZVKFT13KFWvM/AoOyWcl4jBm31YhCp7I3pigJUo5g_6UF7E55vyoXsFs),2016.001.AaW.ErSha-Photo2016Cauldil (3).jpg (https://v5.airtableusercontent.com/v1/13/13/1670544000000/M7HApYNJ-jH0_2p-3T81eg/id8JCyuzRNcm1VpRJQjV-a2Dt4QvLvtiLqmWD6tadpXLh4F3_2-6MAI1YWoDUkFQP4xQS8a2HsZ33FH2Q8HnLhRA6aXb-txjtOxNRZyGfg4/RQyNTOvCIhcFcsl75PxS8mLjeuU6c39poIB4JethvOo),2016.001.AaW.ErSha-Photo2016Cauldil (2).jpg (https://v5.airtableusercontent.com/v1/13/13/1670544000000/XhBmQuqkpX1hpVyOU91tiQ/i2nFKqlJJBYDI23SAYELfafo7kRTMdTxLyy5I7TnzGpScR6-tBusVkLsTMQuvY3kK09ZyTh2dnNV6m6L0yOIuiO5AlKKHPnW-KLVKOWl1SE/6lEJllDkvQRB4wt_3CJz-jpmoeJaS4Lf1FVq5Jjs48o)",,,,Male,,,,,,,node/7835537916,District 11,Upton,Upton/Druid Heights,3095,,,,,39.30378, -76.634785,12/8/2022 3:06pm
,Darley Park Gateway Park Mural,2016, 1608 Normal Avenue,,Whitney Frazier,Mural,in place,,,,,,,,,,,,,,,Outdoor,painted mural,,,,,,Female,,,,"BUILD,Neighborhood Design Center",,,,District 14,Darley Park,Clifton-Berea,,,,,,39.316088666365296,-76.59509814529697,12/8/2022 2:54pm
2016.006.AaW.JuHor,Etting Park: Hope Garden,2016,1701 Division Street,,Julie Anne Horton,Mural,in place,,,,Art@Work Upton (BOPA),"Amelia Carrol,Jazmine Cummings,Shamarr Elbourne,Katelyn Evans,Lance Gaines III,Marcellus Hall,Jache Haynie,Cameron Howell,Raquwon Rowell,Tamera Whaley,Kennedy Thomas",,6/1/2016,,Baltimore,MD,21217,,,,Outdoor,painted mural,,"2016.006.AaW.JuHor-Photo2016Larson.jpg (https://v5.airtableusercontent.com/v1/13/13/1670544000000/KzvpkcCc3jXHJRCQdn3Ikg/6B7UArI07jHzs_oX8EkNRbNW7u0P93cizApLKiu6TeXey2ST15EzDZ53Gib3gqa95j3cTE13UygCKeXErsx4cA/yItos4BjpI1JXpN7-u9VQtpH3BjvoakIXf7IzRyyum4),2016.006.AaW.JuHor-Photo2016Larson (139).jpg (https://v5.airtableusercontent.com/v1/13/13/1670544000000/NaB7sOKJNuGxAISRcu0yWw/H4upAHd3YhDU86lXgeggcVctgzK1nTWDTDEyRHMRaJEctokV34WsyAQ27QJRBI9Tcn-vepiyjC4DC8xWVl61wvawME-18lBt1H-f-q5RMCA/ZSBdNRwWhHSvO3WbrTQBjDCIMD6NC8oMBr1KGzqXSPY),2016.006.AaW.JuHor-Photo2016Larson (138).jpg (https://v5.airtableusercontent.com/v1/13/13/1670544000000/8BwcqmBNxHA5gwQ1Q7mOZA/AyYl0eBb9keLPnWvd7aHY_F27KNrqHGP1_JZbmFiXA5cVezkKsy6CbHShfqJ5-_C0JGNLZGoOAz5UGSFrN7kJv9vRlMms25tRXa8x6_bhwA/PeujL_PB9GFDOGLWCd5vUZKN0zmp5r0bqOHWNSnUO4M),2016.006.AaW.JuHor-Photo2016Larson (137).jpg (https://v5.airtableusercontent.com/v1/13/13/1670544000000/ArATLvlYW-chY6p-422ZQg/0CmUSCC8xhnKAXA7iGf3LaI03Oqa2Kdrf5U3cbLif1QswGSAUTwHUENH89bjibAA6URx-PLbJMii-yAqSNTbt69VDVOJcT0fiAml63PpFKE/_FyHVG3D4tO4CIAwEhgcS1OWrHPaA99w9tAV0DvlouE),2016.006.AaW.JuHor-Photo2016Larson (136).jpg (https://v5.airtableusercontent.com/v1/13/13/1670544000000/QmKRRLPsXktl5v1OcVSJ2w/MaXvctgYnbjyVMEcymy4gRNlbabT4aRcsY1AnjetW9KvPEW4OzwC6DEhXvsEJRoDrDO390HRue6WyIZTBp-Ih9woUXv7eOczrSdofOnl83w/qUZPXvk27hNV8bMvqI0FolIzPOZLla4KIVuUdOLDcI0),2016.006.AaW.JuHor-Photo2016Larson (135).jpg (https://v5.airtableusercontent.com/v1/13/13/1670544000000/_uUHRFexRJuLEUP-ArrJcg/KlFeVYcaT7bow4Z1Jz4BTVUrvJYtfpSEs3V8mtGF2jwNIlO9Cqr3-_3_vrDS3-pewXCcaFVNPCvo8-fl0WcLFOnAJ95qo1d3Olm9-BY-gUQ/A04l3kg2HGXQE_bTQjUHWmqa-kH6N3YJs9RbsILJvOE),2016.006.AaW.JuHor-Photo2016Larson (134).jpg (https://v5.airtableusercontent.com/v1/13/13/1670544000000/OLGo6M6fZBZAmlDeTfh2Lg/mtYHpt8Wmu7uZJvS9oYtvXxfxQnZ1NRM1u0akV4CB77oYFU7CZxvw5_RDUiBm1A0Q-d4NyulK6lP-fI6DPJNHumK3q9xQ2khw34uD36YCOk/feUgqZq9-4KTI9iyyxwzkzqu1YUyNhbKi8euXVlTIdk),2016.006.AaW.JuHor-Photo2016Larson (133).jpg (https://v5.airtableusercontent.com/v1/13/13/1670544000000/wcp0T9G1v8eTi63OEn5IMw/GjSNrnj7Nl0DlCrwvM63ADg2cxwSZs5o2eZGG5vaSFeezlW3bGzHch44r11F7xWDQE06KopYbOU0rt2nw8ESkJKaKnunsqrz9dYTZhcLaAY/Oq3c3YiOwshA6ES44-MSaFjFKgVdrXNYZy6cJ63emlU),2016.006.AaW.JuHor-Photo2016Larson (132).jpg (https://v5.airtableusercontent.com/v1/13/13/1670544000000/hhC00TXA0fwU8m6KcvXYpQ/XSVFSG_Ug4rZ7S5PZJ8BU0-Bbj80pYw8Wvn5bsds0tjObNyPeTaxTPksZFZ8roUmfIOAOfli2PdgcGEeQKuwibxF_35JpETeNeSfjHBofww/xWT0knG2SHqKkz28HPLx3jx7ZZlXgi4CTpuh92QOQM4),2016.006.AaW.JuHor-Photo2016Larson (131).jpg (https://v5.airtableusercontent.com/v1/13/13/1670544000000/g1_CqINiXB9DaPxdWAEKZg/BrEcWy-vhwC-FAi3S8rcQ2O9OG-qxDefnz5dYISbcHKBkULGbewlyqC4CVr-0lJNmSoxgHTKEP6f9BDM6ShWG5qMo9DP72rlrnEZwPRULG4/8H-46QKSHHzFD7ZfCBuy7NaZzEhUs6qEX0hJhhgvPTA),2016.006.AaW.JuHor-Photo2016Larson (130).jpg (https://v5.airtableusercontent.com/v1/13/13/1670544000000/66cqG2kkakagnP2oVcVQoA/q1p-d-DvyesWeVrKQeWLvt1KUU1ZtLM8OSXt_iAaBqkhwR4XdROuagow-eSWSRa7Ygf8RQe9l0_3_AZjC9mfZtIe72xuA8H-4PqnIYnb_S0/s1EvvjeMIM2GN2j6WZ_1kVfEPnuHdUzzVcJ5NZBZs8k),2016.006.AaW.JuHor-Photo2016Larson (129).jpg (https://v5.airtableusercontent.com/v1/13/13/1670544000000/DiWf0Obe_o8J8d6dh6ofIA/W6uFuqge8wDEclkLPCbnqJ_0Zzuq7daF50-d1vNJT6CuXZ5Sc7ELHm9wIF2auRXTwA-8_4u5r72_KeQWi8W7-FChrYVXqJoq9wPu5RA8lfg/eNWYi2eJ-U5mAZzsDLWtAG0El67FmjbLBxv-KmQpg8Y),2016.006.AaW.JuHor-Photo2016Larson (128).jpg (https://v5.airtableusercontent.com/v1/13/13/1670544000000/gJEEz7ZlgwjhESxjAVMShw/9FewwxUrobXB_AEys6Qc54zVIjrGkD1Iuz8A-Mzd-xuuCEmKZG8UakyOfhBuB_zRbOCqONtsTJDw87U7TyK6mSsLVJ_oig4RgNA3oRMUAiQ/lj0xnYgCb_CDQ6H3pBeG476qXSnRMPcjcLpwk_PkYgo),2016.006.AaW.JuHor-Photo2016Larson (127).jpg (https://v5.airtableusercontent.com/v1/13/13/1670544000000/uQYJcsVts8Yn4lidT4jsTQ/EOUoVFLDGBABUS4l96NV4OUfAd8HiDrQfIUKdPkUOWvxm70nmYd7T3awR2HVJuyYa8py8FzTRkIUD4xpqHDUIhoY-QvZOJc09WjmFCvW7O8/oIaYDu7DXzBDKs64-o-OAD5YwsNS5OG2mUfIOvY0jvQ),2016.006.AaW.JuHor-Photo2016Larson (126).jpg (https://v5.airtableusercontent.com/v1/13/13/1670544000000/HnJ6DLf1Wv2kzOIU5Ic19w/xER2HiDVp3ufEWal_IiYUU5v--QK5m5evdkaai2X3aquCb-EIbwgWqPsVfHpw3dHaciGgUh06aCEPw-K8BBj-jKtDANCfy31-XJ8slcbIqM/dhRiHFizDxWp0LNAaEIhPs1WR-lj5lVkawpavItpRX0),2016.006.AaW.JuHor-Photo2016Larson (125).jpg (https://v5.airtableusercontent.com/v1/13/13/1670544000000/EOroIZKcEU5NMkbyubkWmA/1F658J_uVmhvo0X3i_Z0-87u-tMjuNBnFf7gNS9kOutlP3urYjxpkdo1RN1eFD9bNUuhZaQRmQWRaSUAOjJ-2SYMpMlaG5_4CWP07Ym_m8I/EGJATvV8r9IHhMIPRn2TDh6eUZfYWFdFW8czr5JBt2M),2016.006.AaW.JuHor-Photo2016Larson (124).jpg (https://v5.airtableusercontent.com/v1/13/13/1670544000000/06prBNHgRbZbf8FcL8t9tw/30Ahe9sw0k5dk5kN8gHkWUkQLIwl5EDHGdMLLth_PrgESuKQZGxpoQgxfC6L_115HUyxPYEI4OXjkpthYlU4isc8aBxBUGZIHJiV5g0g4zA/aGv4h51Eo4ChYR4W9oKYNfAJL-vxhg36jz4ssirO5ys),2016.006.AaW.JuHor-Photo2016Larson (123).jpg (https://v5.airtableusercontent.com/v1/13/13/1670544000000/vItqDLda6Qp9Z_zOpzHfYw/kr0_bVUQPSxRNv4L6W75x_vrGqQYlAa_krkZnjfsXcK9DaKtwecdp8tGFLaJGDdMwYzg_EcSpHHXJAnvqBhSgffytoUAtwHBgLw9bVwDpz4/qUc_X7QA_vU2ssMkVabsHtMdW6YBogTVvW5_9uq1z30),2016.006.AaW.JuHor-Photo2016Larson (122).jpg (https://v5.airtableusercontent.com/v1/13/13/1670544000000/nBKTk1edWrZoKMgLu9ToEg/DFURdNuOpH_IQ71vKQXcAZoe4QWAXTVli6MqcD5Ghw3EffycKWkYat9oAaXQ_pKREpqaHeQ7m1885hhcbsotiDSU6mt0fQ07IOXulCAONPA/Q4v6eIWjFUgQD9H9szyZNhEZGRoIUZV2FN2udN-FOFI),2016.006.AaW.JuHor-Photo2016Larson (121).jpg (https://v5.airtableusercontent.com/v1/13/13/1670544000000/yoByb_78IERx6jDhPFSGVQ/828cCHTrofuwhgNRGjVPW5xgUKWu0BCvjDn5NkEEwh4zYOVF3sjD4sp89Ww8IVYVkHULXDf63bJAAP6e3W3cUwELw2aeQjMd94bsU3bKcAQ/f9TjYM_ioShlEqT7ogfaVL0LWAhZkT_5t9OY30WjRKI),2016.006.AaW.JuHor-Photo2016Larson (120).jpg (https://v5.airtableusercontent.com/v1/13/13/1670544000000/Syf-cnXjK9glo0qNOLocXw/DUbuD5izmbnnSNTk_5Ngd8F77GFgP_LnY776DK3sRn4Woma5YzkiWPiDcXhYOkAPMLJEQrwz7w6xjXE_CHzLXJHTdKF3ZKV5OkM_gE_QDZc/o2kYJ52jSS8v2CQL6lGOJD_tfzI06VsEQtzqRgr0Mi8),2016.006.AaW.JuHor-Photo2016Larson (119).jpg (https://v5.airtableusercontent.com/v1/13/13/1670544000000/SHQnQ0Llhyy_Ctrljd1pXA/cFs8X1w_kwrTg6kudrsWMPHJd-kymd1ZugViPNvFr6EJ_7F6Ljj68FmGKAaexQvk6RLGoFa0GkMaVP0lvTlhN8CiksQO0ioKRYuOtXmfNA0/kWTmRH5EN64Q6v6ZkqCg_eaCMvR4c88-uMPfavAlg0M),2016.006.AaW.JuHor-Photo2016Larson (118).jpg (https://v5.airtableusercontent.com/v1/13/13/1670544000000/wxRzdbrfwm-SNSg3yqUtOw/eTuI5iTNKblKe1eDnY37lJY8KgE8-BptHhujI-IxRFXKktX71Wn7kplDQhxHEW2kHzQSw0o-8b70YTVrKvv8toAKHZiPg05KfSx2SY8oKkc/WEbUDU6acAtyPtecYQPTL7hoMFeMRNIZim7WWSdXy-Y),2016.006.AaW.JuHor-Photo2016Larson (117).jpg (https://v5.airtableusercontent.com/v1/13/13/1670544000000/gqWAvtkiGaZHHfEWo_Gtew/HpQJ4ZE-JCKS9sASNRsXaiZKXNx3FXm3XuaVc4UluJdX5HG1BL2vaTrl-HXvUc6ySVvoGSbudV-OsYcJKSgwBfHqmBaPBWr-EU4nri2CEWg/VPnobS07-Kzzlmrgk_a2ZKqyVwGACAFjo_RCbY9psqs),2016.006.AaW.JuHor-Photo2016Larson (116).jpg (https://v5.airtableusercontent.com/v1/13/13/1670544000000/L8Dn_4KapNl3cO7c0nQ-EQ/DLbtPH04w3pfKqc-ID0iRf0A9KvcpxMUYLH3Z9mOE1YWlkVaPEWxaWiRr5k-GaIhre0C87vpkqp8EmMJ-p9vx3fZjbIhuWLaiWpjavsU2ZA/ykum1Sq3ADQVIfR5Vr-aZlII0hppdww31KnHhxqNDpI),2016.006.AaW.JuHor-Photo2016Larson (115).jpg (https://v5.airtableusercontent.com/v1/13/13/1670544000000/Aumum-WoXIHNg7KUB4XioA/K4VbYiimIIIAFmqb3y-TeG4n5qW_YPCxS-pg7xb7RVG47HSF9k9ZCaD3PFCXQwsPfmddWQtvjwiVnnokVcjmADKS1HSFwiwODZDB8sQ8Fko/vd1nploH2ZMeX0zrwJrRfQfl7gPX2H39Jnkk7Vi23gU),2016.006.AaW.JuHor-Photo2016Larson (114).jpg (https://v5.airtableusercontent.com/v1/13/13/1670544000000/9hw48PRy1IwOhjeUSzaWCQ/5MWWQcpJrnkNJev1SH44CLIuyMutHnLWDmUNVhbP9dpbBClGFGWThAu7ebbSiJnOpjfj4TGDIcGt3nVwL2y8oadMaZUOU1dlKrgfa6qqoQU/C-REqJbu7E6KxjYPvZh3zvztWi_WnEZk6Nih2If8gtc),2016.006.AaW.JuHor-Photo2016Larson (113).jpg (https://v5.airtableusercontent.com/v1/13/13/1670544000000/xVMcx03PlxvVSZ54IUSf2w/_yFPYyA83h-HoRO2fFWeI-Ts9jXWnHf7jY58eUl-Ot1I0-1OUDbFBuxXuI3GdhU-3nBPukb2HKfE0XJlllMETOWa-GIJy9CtXFwcxkm8rig/XMjwONHfz32YNo-KxVCPBJORqUFGeWllYQt6iIZ-eGo),2016.006.AaW.JuHor-Photo2016Larson (112).jpg (https://v5.airtableusercontent.com/v1/13/13/1670544000000/qC8ww0XgmjM8ov_mloQUfA/VDH2TfRqauYyrrutz0xi97qdpfhuMXiWFY6qU0Uxo418_yj5HhXJPR7UNuYu8HkibfifOP7n_QQYmb1A_vtXE0dLgb4oXI_3wql3rER2Pkk/wsJd-cwj74alTUJgP0w2ZusB7lZIpmV4KzXgbUISq04),2016.006.AaW.JuHor-Photo2016Larson (111).jpg (https://v5.airtableusercontent.com/v1/13/13/1670544000000/CWkVQMCbp8ft7tdDY2VeKA/mk3B1DP3fXr4WD9UrXgjQSzaE60gUGIw7yvEEHW1gN1mTYRjyZUqvUZ-RSYODwMqLEbUpvQxe7gPCWt38uuV8RSoxKzxxyklyIi3cHmUqeM/7_YiCbG4sPPjGSGJadNuxPkMQAnrk8qWlTmQR0NHfVQ),2016.006.AaW.JuHor-Photo2016Larson (110).jpg (https://v5.airtableusercontent.com/v1/13/13/1670544000000/Djir_Md-XVziicfF6hONAw/hbTm9K1FPTyKMd8pgf8oZK-wahfRxc1fy3KOjWXnkAlvQhHRMT3PA6mmd0yh_VlNulu6me5rwKiPQVi1ddeg5sVCsm-GATpwYTODV2bhXIE/zPPP6MQYYrNIrVNtr0CQ2coggN3ReE4zf0KW-ZRF7xc),2016.006.AaW.JuHor-Photo2016Larson (109).jpg (https://v5.airtableusercontent.com/v1/13/13/1670544000000/kd1amWZQXKspQKx6MwwtEA/QEnXP505Rkkn-_TT1EgVtQZZwaH2xKiD__VokNd-nc3sNdnrC4tuH0sE3DwN3U-a1YYPnc-phk7zT4i6d8nFQuNqqHu2KJv4ge7l05kLRVE/m-VBttBcxY-txqhsNyWeSRbn_w8LdWYOYBeoAuUvVRo),2016.006.AaW.JuHor-Photo2016Larson (108).jpg (https://v5.airtableusercontent.com/v1/13/13/1670544000000/zyibWHNFBDN2PqkOPXsWng/doJymmSPZtVohLi2dvIUn9DgoDOYotlFxq-z6ZAiXncb7iLV9tJs3frmVl584j_L4LtIj9zl0QII8oXBhThB9L-m-yLc33dFEeM1hrLWptY/fgOeEnvP3uoYMLL4lsMiBPy__m6la_yMOEXctSL-IzE),2016.006.AaW.JuHor-Photo2016Larson (107).jpg (https://v5.airtableusercontent.com/v1/13/13/1670544000000/_cZZ6tIyMX46hF5MZ_Cb4g/754iN9NoYpIm3pM6TnkxYRIlwmYfgPCkcOsj0X8Pi1EqiosAUAgaSL7aCAL_x17urbAb9ThG5wnBdeNeZVKDviGfay8nHBIIOeXGXgQaxbA/uXIv1ga1SJfsaauHKCFNdwdHhBJO1pz8muTDLK75c8c),2016.006.AaW.JuHor-Photo2016Larson (106).jpg (https://v5.airtableusercontent.com/v1/13/13/1670544000000/hZmoC9CAqYBEDvTxflEeAg/kZ5RnVAXToS6bmGUSi_i8NgSl2TeOU5EOIlvMu5A2HkA1DZdZSjMpfFCbIMKr8D7nmldyFXjCK8aZli8T-36j2EoN2mwwlnYD2xjTZ7HmgM/ZHqcGWF_m3za_i1nkDinwqDIzNxLqnRGhXu-YxdMS6s),2016.006.AaW.JuHor-Photo2016Larson (105).jpg (https://v5.airtableusercontent.com/v1/13/13/1670544000000/IWARQAJVWUf2PwblGZN_pg/REwDftuM7-ZsY3faic7eARLxvr9iVWv4fo1MUlUPpZAlI9khU9iYT2_uqNgQU8_WvZtaNfpyeat2WfCJfUQm-UN_h-bgYVcmVy3DtaIfZLQ/BC0wWYXz2vGFb5oz0zln0BaQazmHtEj8mU5y_xmBfdI),2016.006.AaW.JuHor-Photo2016Larson (104).jpg (https://v5.airtableusercontent.com/v1/13/13/1670544000000/arA4EoR4VszVwlqUUE3T9g/7kbUnQaxbGcY_a0-v0OdZJG_5CG7zaVFMJgYhhgWdEdcEFFfxPq1l7GBWGO4BowB-0lyQWn2jICnJnR8cIQjQ7utp-VarP8Du-qjUxAXrKc/v8cK1-cIiEpXWz7s-oedkJJx9jes0cvhENwjYav5alQ),2016.006.AaW.JuHor-Photo2016Larson (103).jpg (https://v5.airtableusercontent.com/v1/13/13/1670544000000/YOO4F7qHZ-2ThfVl1hrtcg/d1jtmlcgo2MEQOeCqjonUO0C0BZMyenNrcCVAeswrVC2Q2kt35JG19oKQX6fKnSFLiBXLtO0eFRLNljbGiO7Zxkf8lE795X528KBYYq7Hy8/v9D2gjICcqVtfxYTvICbcTN2h1yoAnzuz2_xCWb7Yvs),2016.006.AaW.JuHor-Photo2016Larson (102).jpg (https://v5.airtableusercontent.com/v1/13/13/1670544000000/85DU3gVRNKG0J_1u27zC3A/XTgx3ZiuS0vp9-iyF0sxnpNQj2tgPfEusQtGj3Wgu0InC_lqStON1kinEKE_EHIfoqQpPZlsGW8gqPWdq9MAeu7DAfSx2GrCQrbKQPH-fg8/2NkCPrFlRq32F1AoAZgHApNlEBWtPp8zNet_mpJdo-w),2016.006.AaW.JuHor-Photo2016Larson (101).jpg (https://v5.airtableusercontent.com/v1/13/13/1670544000000/IXZuQHmcHQoloz8CnKL2TQ/5b013zP1ZN6G72dGZdMquZ8b60BjRCYS5cBbHEnvUaxTYum5yzDnq1c6IzKIr2hny6sV2wZW9hAr6NwyZE3ZpIDV5TMJo53lYszF7Uytdtk/x91WGqvsys6F62-xdhfb5jatDJVHYwzhZO_3ZUKwHZw),2016.006.AaW.JuHor-Photo2016Larson (100).jpg (https://v5.airtableusercontent.com/v1/13/13/1670544000000/7kjUpIP3frl_GWAcq4seOQ/mkyWom3rd-7DZOeu1F1FJIzPJTzqInf5KCz270J_Czfg0RvQF_GpN_jViq4oz_a4-y6U-Bq38rzpUwt9jWu8EH3tdqFjeY55BHNhTM8xaeg/4khllBBnCcAqaCbKST0zV1aVu1e2dMeYmHoXcU099s8),2016.006.AaW.JuHor-Photo2016Larson (99).jpg (https://v5.airtableusercontent.com/v1/13/13/1670544000000/UtpaI3CDzVXuQq2yjumLvw/wpJykt4vdXImIrXbtVMeSrTidbQZh5ycimhpzg7XAWv_9YAwuE7JtLeP36zUMmUZgNKL2uoUOPQwVoUDRN4qz-sShRsY9rkguLVgQCpNKKA/sOSs25kLKIrWZ0KQ2CGimXL3EbjjFn_P2pHqGg5JcyM),2016.006.AaW.JuHor-Photo2016Larson (98).jpg (https://v5.airtableusercontent.com/v1/13/13/1670544000000/qSytVZu3PPZNok1Ei68UXg/UScFkUBhuvPEfMNU9mvfPpmr6Ldyz0a4jLkfFfbX95GS4qFCI-5SzluAfafIyCqm8n-mfYBf4aUpBBLXMIsI1In1W1gduAJeGUM-AmEaomk/Dz2Hup5kqdUP9uEFE8vw0O5uUeqa_9ML-x55wqCGCm8),2016.006.AaW.JuHor-Photo2016Larson (97).jpg (https://v5.airtableusercontent.com/v1/13/13/1670544000000/GKBUUMx_QHkAEjZ6HdwCTw/6-vLLFFWTkgAF5rJ4hk3iDFbxdGt3WP1MQ591ylT6bR3yppBpRg0limlk8YjzO9FhqCa5XCMweD7bCat64X5MZfuyYXzH07DYm1i_s2ScKo/LUtl8b0Ln08ene5P1TShUJRhfK0zsHOP_UT8_mNQJWI),2016.006.AaW.JuHor-Photo2016Larson (96).jpg (https://v5.airtableusercontent.com/v1/13/13/1670544000000/zZqaN3x3Wfo3uUR-TdFxnw/5PpnNG6Cz-IduQr-3n0GR_rClXhXKcOmEISB9WfmGH796wvRj4Hqbi3PSDP3g_NJ1WazpFYvQTKxNpAW5gVdBr1FM6xslSnpDupePZSUu00/6uwAsuQOJaXuht1zcoWZrR-ehrImms8i2W9MO-gbbfw),2016.006.AaW.JuHor-Photo2016Larson (95).jpg (https://v5.airtableusercontent.com/v1/13/13/1670544000000/daLNSMD8leaQxfxu-Ehj7g/OOarqOwHQgGyGPRkwvJj7asJ-K7JPrrOMMpAkKTsLEJ9JeAtRDzRsBhrQDVpr5swyseTWcXjFunmvelkNgdFi4SFnIsWaSgsQD23SgPiN9c/nexUshbGbyp8AnhJow1IWKyDP_xWgZLXPIY24AyY42I),2016.006.AaW.JuHor-Photo2016Larson (94).jpg (https://v5.airtableusercontent.com/v1/13/13/1670544000000/Kv-INSaCx6oQ5S3BiTdnNA/gPzqnoIaOqTdyJoTkJcxlbBjVyTyfzvawsD304WHMSe18nKCUytwK10IsDvDrdRGG29gEMiHdlXy_z8IEICZ0idVg2xXboCA3gswmz0JfJw/TSUjBzo5BBsQ72b85vl5yh6altklbQlU7fUDnZe348o),2016.006.AaW.JuHor-Photo2016Larson (93).jpg (https://v5.airtableusercontent.com/v1/13/13/1670544000000/OGWJ0HfRhlfhyAQpzpydwA/uRaeW3eoIU7m5cIW8DeSBL9WxXBk9S6wlSh_Te8BvyLHgHWHS4dHMvPiirsdyyfRZOLRFZTmuGyerPmIsdmzsV1dL8TbqW6fvg1eE1KBaxE/16iKlVImdhH0AbbXRiMizAWoAyBWamF_QSNcAVzDRH4),2016.006.AaW.JuHor-Photo2016Larson (92).jpg (https://v5.airtableusercontent.com/v1/13/13/1670544000000/jmi8Kmxv1DpKXN6-5Hj17w/l80QxlwsEY_emZBM7e7l9XwNB-4TN_SgZfsYl3JxXhN5Ww2fraimgpcqvCDdEO61qzpJaoe3JZf8Z-ab16KFZrUJGEoPH-kZyCcAFzhKh9U/gMdaWKOXJ4DtL9UEeHXAeZmxhPKeorLZQ_PgliICazU),2016.006.AaW.JuHor-Photo2016Larson (91).jpg (https://v5.airtableusercontent.com/v1/13/13/1670544000000/s3otQKk6vBf1prWvuvVTOw/SzwXmiStmM6e4jMqf1gnYo6A97E2LWPohWqXpktZFe7jQBcdjDuUpwhAt8CopGtG2TZMNGXqo1gZdlcTQLqzEbwF95xJby8g5LiLsAOg4xY/xDnHNxiJKyoUPqoyG33Btw7GoG_AIHqAqOqQEBpSuis),2016.006.AaW.JuHor-Photo2016Larson (90).jpg (https://v5.airtableusercontent.com/v1/13/13/1670544000000/MTzz2nj7tPKNYOmqqpBOSQ/PvxMSis80oDgBYaZ92_q0LEOv1gyqiLox_te5-BEU-Jcibb-56UElt2IFOylFLUOZlWijqvUraKJ1o-iDP0Y9v3KHeJTFbG1z0zngXpDMC4/LtF4b7VlQTDt7QAY5m6XypRyVK5CrijpTcG2UpTDOcs),2016.006.AaW.JuHor-Photo2016Larson (89).jpg (https://v5.airtableusercontent.com/v1/13/13/1670544000000/0I5AzOOgWfHPSKWgrA3Vqg/Yy8q8MG7kSP6NnTTWu4mSDqq4sa2Ccu6_JaHlYQaM1IRyayoaqrqoyZokdYNcgBjLbvwCBoaZdfwHHmN5wvDsjw_IaqCK7j2NJuJQ3e5EnM/Fd-6hmUEPiq2CmfnOmtfbfNp76Y9vwq-2gs36boBrUE),2016.006.AaW.JuHor-Photo2016Larson (88).jpg (https://v5.airtableusercontent.com/v1/13/13/1670544000000/Kd4aGM8UgOZkB5V1EShYSg/KEicYP_R0yd3NBChQrU2J7A8ZeFuxIKM7Jxn0h1hFQuIFdxqQ8WBukjzOSZsQ2hPe4NAsCcPmn-151WvaJb4ASpIDAUC-37b6dapc-dZ2Dw/pcOBr9n3tVIC8BnndvRIA680C9hEfmFlBv4SOcYWAFo),2016.006.AaW.JuHor-Photo2016Larson (87).jpg (https://v5.airtableusercontent.com/v1/13/13/1670544000000/cCIM9dup8pqZgNtl5TNOMQ/wD4l4NP_o583NTPFSh8QpxOS3snCj1P7t-o-hEs8uUc2vFwtCFjcnYkAc0RSL51uyoHMt1REkxBtIUpJZSHbq8-Km-rSSavyPNLMk3YFSpI/7j6jk9oXlMucbcLSEW7rLhbKvPJQ7yGKl7PXSPZGjD4),2016.006.AaW.JuHor-Photo2016Larson (86).jpg (https://v5.airtableusercontent.com/v1/13/13/1670544000000/xYkON6eJ6aF1DObjZpmoEg/7iTP40FZ5KhFk_oSmgiM2rKOQpMsQti7dARua3PbSM5hE19rixShf7xAViSv64ZWmuY8Q31ZjWgT7h-e4Zi2y8cgMiC5Xhdmjolc-ZWRjho/RSh7e46GSH7X65_KsCb-aw7XBLp-A9Awk-xhITs7Q6Y),2016.006.AaW.JuHor-Photo2016Larson (85).jpg (https://v5.airtableusercontent.com/v1/13/13/1670544000000/jvpLLvOrEiMs7WUYLyUN0Q/IDbYmcEVjRJxtTlAG1mOEQfe8aehV2a7l3lzurYMM-OKm5AvvxIbv7plfLNW7zT69tetmf5t12_pbrSaiPO2pdmX7Sx_gxbseILwVApatmw/bEUKQJjQoj2g2LtUDP98KUUmFuIvTz2_Zd5yUC3LOWI),2016.006.AaW.JuHor-Photo2016Larson (84).jpg (https://v5.airtableusercontent.com/v1/13/13/1670544000000/-5df4gyCKLKZ-Zyq2DvLqA/dDGHmLf14iYkY8HHDgImAf5p-9FydWSCzrTwGFnCwQcMIkcn9HfLvOd4hzoz528LKBL1HrPmh5nTccK1N_4CZ7wViAAaIx0BMmnqgyqeZuw/YxfW_SeaUDXnrXxBtmd6JywkoE2zjEsFkPC9RgWxYuU),2016.006.AaW.JuHor-Photo2016Larson (83).jpg (https://v5.airtableusercontent.com/v1/13/13/1670544000000/69ULYxt2AWvHKWSSoeTDiQ/aouNlj2FlVu9Q9bdedQrnHqkQKV_QrOvW3-tR82zVdrzZvzZmNWsvNUlutnXF09fT4V0d5CosKUYM9ZqK_QcnfB-OcF-P-pk1vCJVDtxfw8/8SN6en-UokrQZR-cJo4pU9jgrXyJBri9FcRpAgO2X5g),2016.006.AaW.JuHor-Photo2016Larson (82).jpg (https://v5.airtableusercontent.com/v1/13/13/1670544000000/moG3Ir9L5ZK-Bvj-p222CA/c-OLNhlJKyhKpiDhTB-3_f3QYicsJ9YUlU0m_0ixG9r1NDzSOulue1y4SsXXFkg95dO6o-Fbg9FFN0nNiuHk5OdI3chXAkPKBr6A_VOhOYE/jx-Cv48nYwE2nnGMEUEXb_rcdKfYSEJOPux14szAAJg),2016.006.AaW.JuHor-Photo2016Larson (81).jpg (https://v5.airtableusercontent.com/v1/13/13/1670544000000/HJg1Mmr8xVKmoL0ZtJDEHA/gK8eKjP5g1mZ9n480zMkoied5JdfLEzbCQwJYo8yFo1-RFE3BtUUvLkNOGNRky4ov-SKK1YRid9KRk8fqelNZIt8-e5BhCB0oex0rM4HAXE/JTDmx6UTxJ0JxLG1gyU9xDmD-ip_9hCOjjaVlqNMcGc),2016.006.AaW.JuHor-Photo2016Larson (80).jpg (https://v5.airtableusercontent.com/v1/13/13/1670544000000/HDSb843AOsq2TcCv9gnPoA/qneBekTkxpUg9fekajTGy3OAQ6eZBvWucrgEoNkljfdsb8LngVhJKXaNsLPy56VW5-emklo15Gi7ynTP1zKD5v6iRdTf4zF9o3Ms6YU36ZM/9hEPXgDcJQ6GPCHeIFARSB1HlzV84OAvSvSVY7dEsoo),2016.006.AaW.JuHor-Photo2016Larson (79).jpg (https://v5.airtableusercontent.com/v1/13/13/1670544000000/46Gnz8Hb_qoBpAt0cfGC8A/lihzFCFQLuoyxsYi1-tkfElp8LhoZI6SSRqiRQH5auispNpgXWUV41x3zXcLeSg4xSPVfovwKJHOAyOQP361KQAu75JQZxQhJeLAAAkrEoQ/8AVWMrzQwvf9PVdXex2nbxU9b2wwUqs7jf07bOZYwz8),2016.006.AaW.JuHor-Photo2016Larson (78).jpg (https://v5.airtableusercontent.com/v1/13/13/1670544000000/R24zifeoFwwJcQCWojnPjw/on2NDE5fWLJ7FeatUxjXZPf58jrlOnzAh0CES2Kdy1F1hO1EkdMUUHaF3v-NFrtTdSySLHzLjwt_b1KtCareK_wHIfnjACTiyYWMQArYpOQ/rK7disulleD3s0c7qxDFwpPV84pcVETbQS0AeQnPAFQ),2016.006.AaW.JuHor-Photo2016Larson (77).jpg (https://v5.airtableusercontent.com/v1/13/13/1670544000000/gjM5p0PMCDAK6AzreDhFIg/GptkM88CHHSpubChKy6osI7pk3PaIu-c13qsJQH5Da1qZESb4SlPQ3tZLLbcy4MZA38KZGIj7_JgIGk745bXiUkfM0IkEzRLMYbsQdlH-Bk/axRR9qlbqHgjxGqK5wfmw4IXPSVc-VUedorI6pH3S20),2016.006.AaW.JuHor-Photo2016Larson (76).jpg (https://v5.airtableusercontent.com/v1/13/13/1670544000000/fy5X-q25lttkB4xP0erNYA/LLAak1xQZqHDCndCcr-NLTmqeTEfYZ81-2n_SpzB7DLww6iEu4q42zBwBfu8111RJYzhpnKEo824C5WoVThGT0u-5kWoY_uXZPRw3G8177M/DbCVPhinkJSF5jjmwll2XOG_Ldu51CKMrIt7A1QcG34),2016.006.AaW.JuHor-Photo2016Larson (75).jpg (https://v5.airtableusercontent.com/v1/13/13/1670544000000/jK0kcuUSdTdbAp1Q-r64EQ/I94p2Cx4F19pfPNd9tBwekYFbD_oUzOV7lDCzIE_KSMB6GNRVoWXajWNw4vPiwNEGNtlse1YqoIkyy6zT55EK5hoUp9lkvITTqQZVqh6Qwc/b4OL15EX1oNHE9KZ956nhLafzoidsLpZtM0AHBnE7EM),2016.006.AaW.JuHor-Photo2016Larson (74).jpg (https://v5.airtableusercontent.com/v1/13/13/1670544000000/UDVB8kfH5IyraxbolMRseQ/shRjCwGt17u-J_l9yvwlnCD97ja-W2XPflzXJwQHMd48o8upEkMaFIm3unizaCHc1Ah5Yx8lDNFNslMLq9B_C61xLBsP6MJdUGpMtmNwB_s/X1dMcl5qGmaB4t-MnmEmt1SZtr4tmOK3wOtZ2ZdEOTg),2016.006.AaW.JuHor-Photo2016Larson (73).jpg (https://v5.airtableusercontent.com/v1/13/13/1670544000000/y4CWYfXRdRkmiwiLYHYuXg/OW5XIZv3CTpnfROKPkII-prFYk-CdwVSSMNDOXU2S-d2kfEeS2I9v44DkM6vk_wd_YHoXwiu_VoWGKWsuUMs8a-A4LqR5nEghPH1XR0tdVA/A0fWG4fBZ7XHKl0r_VSiYPSKX3E4DOTBZ4ZtHwR3gcc),2016.006.AaW.JuHor-Photo2016Larson (72).jpg (https://v5.airtableusercontent.com/v1/13/13/1670544000000/xYgHQuFHGUIk2VgCNIIh6Q/9hoUtYFae0Z2VHzGmGhSdOp8bFDy-1XYgzqIyDDl5IkR70Bz84m73KYNlaZYFPxMlY-x_j602VXqlcvuDk69kiQgxySUypLUotbzO9_3iKk/1VzkNHANO1Dos7K3Ap1FB23SMmOaO-Y4d_aA-zx9MQo),2016.006.AaW.JuHor-Photo2016Larson (71).jpg (https://v5.airtableusercontent.com/v1/13/13/1670544000000/3f_-5YDfWYV12t_p6fKjPQ/huRJrv0Cfa6jqWW6Ft4dgFvaJ3bgDGmTWclUajNO2j4ybT6cMUuHNsuDUuP5xa2Ut7hrte8uaEthhgNkUqY3jt1Xc4VRBrZF6o7NlSFjCpM/GSBclsquCU8FelzGC7h0OCN4xVHhoZhc7zE2ZPwgghw),2016.006.AaW.JuHor-Photo2016Larson (70).jpg (https://v5.airtableusercontent.com/v1/13/13/1670544000000/UaWg9rvQK5Y6vxbO9qZhJg/PGeJV5U601NGWh-6UyWybHkYieO__y8ul7CYA9uSHbmf8Qh5E0qkxKvFIsxLYL-nKRtSnIBlVekDWfgQMv2WLmU26T9f00D8euDCwQZHRcM/A82XrUXC0WFKcf_qvuZeseE-HhQF8XhcZn6PxZWWqR4),2016.006.AaW.JuHor-Photo2016Larson (69).jpg (https://v5.airtableusercontent.com/v1/13/13/1670544000000/XQJrnx4iLXDWIdjXFWZ9BQ/NGnKAWEkdab7bf8UsM9T28NZGaE4h7hkuk_teqevwFIYxSF9yMU9auiQai2U6bQ5md-zbejMBx1f1JqI1SSx8SAGRUR5ahqmUEAlhhFWaFU/2TtR-kW_YKCFMvCZgtDl67ANEd9jsTzUqBNEOVWqiPY),2016.006.AaW.JuHor-Photo2016Larson (68).jpg (https://v5.airtableusercontent.com/v1/13/13/1670544000000/rlybShP4_LFbzPcQS_RX2w/Kje3Xt07bHf8TtzV5vDmqtj3bCBu75MLTKMHC5LhzmaizHJKL0aWaFONm49rh4BK4eZeZ-xW4GR4wRds2z4bnI93GFTUysXdSA9-3Y4xGd4/D-0F8M0beQKk5f4rcA7z5mAXIIXIXhjgRePQd99L0_E),2016.006.AaW.JuHor-Photo2016Larson (67).jpg (https://v5.airtableusercontent.com/v1/13/13/1670544000000/tH5bmd6hp4faPi0hvQP7wA/1S7faTz0KY-UMyRTuFf_cGmf8uiPoNqwGrpucZ0p16E-wbZOmG-TDppwJqlldlrrtZ0r8touzKEkj3KQf-8d3w_05f0D7FFE0O8lw5qJjgI/3bV_Hay0UwbQoa_3BWd4h8nj6IV3YHiMN6MgQx_fvyI),2016.006.AaW.JuHor-Photo2016Larson (66).jpg (https://v5.airtableusercontent.com/v1/13/13/1670544000000/hsfTSQWioRXNAvBLTf6BWA/sZqgbGE3aG1iPj6SViw0iXFVKhvQg249t-5kn8lpljNwLPGhoY3iqlMK_X13D8is2JWRttlmuKECTDjx6_-1V-S1lIBRtkP89Z2tfLJjwI0/jHDRn1bEr7nbBRxtUTxAuR0U-Cx_b7g3nhBomWh48Jo),2016.006.AaW.JuHor-Photo2016Larson (65).jpg (https://v5.airtableusercontent.com/v1/13/13/1670544000000/nbhFZtJiB9PnQ79FF5H-vQ/RBeEhP8YkLpxq3xfMOeOPtETiIhjCULBoe1ZQDfHxa4szpzcQ3kiwIN1lKeTRyji6kw5ccID1KVrIxY4Wc-7Xej_NYpMIBHFsXlrz6cIbS0/d-7tj7L59xW4sw86XbHaWSmF3gbhUc5ZYwlvT73uRbg),2016.006.AaW.JuHor-Photo2016Larson (64).jpg (https://v5.airtableusercontent.com/v1/13/13/1670544000000/znl66h-E8LAjbYdE08bElg/-8pJ2NAujEV8OgFfK_3eypb3RHbNL5CqyK_O6nwe-AR2p2d5oNoNv_rxHHjU3nWpp6vqN2JD9gJsutO6n64xsS9C1PbFy4j-6pcNu-8pHyo/pxV8CYVfVtbAFWFhs9Mtkcumye1OcwoFCObcz_EZYU4),2016.006.AaW.JuHor-Photo2016Larson (63).jpg (https://v5.airtableusercontent.com/v1/13/13/1670544000000/4VI1PbdQygom8uiv9ezYlQ/Qq8d-HadJMY6SOz55RDT8n-XKFTOC7eZzOdDl681CaA_2KUYPOlgnbUsGU8pjFPO7ZrYd7pC8FVuS7326dfBq-OzSRliNsLl0JbIVBYypRs/vLrN1vQxK6oWb1LC37WCmciSZmbslGAb0FcUXpaLtTE),2016.006.AaW.JuHor-Photo2016Larson (62).jpg (https://v5.airtableusercontent.com/v1/13/13/1670544000000/l4Gbl6ZnVwf2RcgeGbJ_BQ/eTe_3GH8mXMd8SkMidFhftizpsWd6u-cV7dqyMfPfdpcywY95mK_gg7cCAKg01PfD_OsTwj8ubKjCD-kfHQN1QG8NPM73Iw5wvMVtDB9O4M/5gGYyqWe71XpUaDMA91cC8d_WwIw5of0GcqybpKFO1U),2016.006.AaW.JuHor-Photo2016Larson (61).jpg (https://v5.airtableusercontent.com/v1/13/13/1670544000000/vkz6oB3gvH5AvEYTt5zdgg/Vp-2r0klhh8bJucAc_e3HvaJL7OOpiYFXBg6gp0BzXXffWNkGothi4dQd3tmgennuSeJZmgtEZbIJhmp2g64647hMZ_rRi6i88aGBeEEilM/QLe4ecbbnin84HhnPUGLvsV6bKrSUwXYQaL_lnOihzo),2016.006.AaW.JuHor-Photo2016Larson (60).jpg (https://v5.airtableusercontent.com/v1/13/13/1670544000000/ozXYgOrKXje4CcgCW2OfpA/oShhnHOlnTwg6on6e4x5V4nsUB7F1mxS4QraN-3yA9RYO3CKiGbcTcM0CjE09rI3oDub4qlyUXdYzwReVTJGoc3OjDrzdt9I4ijkAJAPdgw/qgxh6H726KZ2yqcqYzw39MY9UoCTgPuR50MNpzfcp0Q),2016.006.AaW.JuHor-Photo2016Larson (59).jpg (https://v5.airtableusercontent.com/v1/13/13/1670544000000/FH11RUag5Gfctl1g0y1PmA/gUsO7fPYej8H8ujS1_5qLvxpvLnZihmr4iPIdfGmnzaXjeeiisZq51dOVZQfNXndYvX8-XXJs1EWVUw_uiInqF_SJhRMMJdwElJVW6L35Jc/HbjyjJ2RTe8ubeNCPHp2NrsTWjt-2JmhHyZG0DHgPBY),2016.006.AaW.JuHor-Photo2016Larson (58).jpg (https://v5.airtableusercontent.com/v1/13/13/1670544000000/BHQqBdzZRAH19w7-T9hxKw/hgZ5Q54sQfgbGORtQm_rJbDtxQoLcLjcZaMr9ndujiRva66GRIx0ca7c8xV1r7HoB2-jnecmOPLGM8Zwcjfq4LbsND_IwTN7uwtK1cKnhb4/p87o_t_YacEDBIYZu9XvPHCCsdN8FKJyR85xtXxX4rQ),2016.006.AaW.JuHor-Photo2016Larson (57).jpg (https://v5.airtableusercontent.com/v1/13/13/1670544000000/Z838GWowiAUH4mVbKG8bJQ/mJ-JxzNnMH5UseZEl6mTfvi3_rKbWu64_1dvkyz4YcCgd6jc0tgPLw0_npAT9ofw42-N8Yl9uY8E2OeoRmx68ymz0ol6uiLz_TeQlhBdqdA/nlpbcXTFTjiA_AXWagcu9Jd8ZeuP_UNBYEn6TOqo1GQ),2016.006.AaW.JuHor-Photo2016Larson (56).jpg (https://v5.airtableusercontent.com/v1/13/13/1670544000000/Mz7vpE4f6VCwGsnZWnSSHA/ERVAOxogwsRbkuoORjA9XhiiYvTotH_FJmlm_FBAvYDZBpyGwcCVho_vOdS50BGCqD3jRG6CgjtP-Y9GUBBQXJjE2OM7AUePtvuFTM9Mx3A/QxgFY_ln47r74HpuJGy64Zw2WpLXQOC6_uihnejW-gc),2016.006.AaW.JuHor-Photo2016Larson (55).jpg (https://v5.airtableusercontent.com/v1/13/13/1670544000000/mczeO2AwBJ2xqTC10QkbFQ/ZyAb5CA_OHnA-HiIVJiz0ajvKJbmyQP_2KS0kNiV8SFWgaX6mBcbdzFIN2Qr6nJ4RwcwVFrZJere0OSYJpe7M3I62GKMr8S_hjX2h8E0uIA/2_T-h-7YOtRpQ-139ZIcmfzJGnEaRi742mcrXUO8lxQ),2016.006.AaW.JuHor-Photo2016Larson (54).jpg (https://v5.airtableusercontent.com/v1/13/13/1670544000000/vqe-rtlC61Del2qX-pz5lA/RkcR0NeuHZvu14evC_WmzHn097PyBgDMzESuefOh34ncvSE44v98egVgCSP7uIXkJ2qOMVq4k75bwwcc5RbdLvjlvk-sAz0BKwrjKP4lqUA/DsZJnTlNxOU2Q5YIOIff9elEEgNnbKHQAAQpdbj1jbE),2016.006.AaW.JuHor-Photo2016Larson (53).jpg (https://v5.airtableusercontent.com/v1/13/13/1670544000000/QppxcsNMQJs33eonpuHADg/iwzY8ABwWb7vpm6zQ0C7fhoWNbYAYgPpc5c-GYai9GgSWURZcpR8GNS-PmgPSgyWzyqUv0yNWr3F4JUBAqPb39OyOH-bx8_ex_8ysUhXpK0/D-hLEC0YjZKYHStfJrHlffDwhSAhwwuU9pIVxiQipMA),2016.006.AaW.JuHor-Photo2016Larson (52).jpg (https://v5.airtableusercontent.com/v1/13/13/1670544000000/utTX4Q84qFl9NdsJoVdLpg/igAwNVzEzTxav8HPvnCSzhcF3qYT8OfhsmHky58CATVxiB9soQEZSRG8cRf4Qf9Lrg0ZADnMcoExYX6hzxIuQ4U4QOGRwqK78ZQBtxE7lM0/nL99OJCum-5uW3OpjEWW_8RBFqPShb1zk7vWZg3DwRQ),2016.006.AaW.JuHor-Photo2016Larson (51).jpg (https://v5.airtableusercontent.com/v1/13/13/1670544000000/LGxunDsisZBMVkBRugVdrw/_K9Nk7rvqCV_VfVlwa4tyza60Ecr6KlAYtJlzR0yE-3JJmG0MCGmkU1z4SrEEUjtQvwORdQTGupMpaVxN1lk3ubCTGarLbmXv0YV4R8joE8/VsFohLaVp1mGzjNfMAeyIKcyeQrMWNyxpUbE6Fd5BhE),2016.006.AaW.JuHor-Photo2016Larson (50).jpg (https://v5.airtableusercontent.com/v1/13/13/1670544000000/bQGF53S0k_dZQeIEa_diyw/9nVk57L3bJeWIwPAH6S4lHdOT98Su_GCHaaoXH4ytExaikZx9zmzNOHoG08GaJRPhm-CLpwtvzcRmzBhVmDZNL-wocg0nBuU703SZpMTuhs/nykzw6PsJ1T8NkLtOGDBNP67fbwwWqbWMQkbs5XmSwQ),2016.006.AaW.JuHor-Photo2016Larson (49).jpg (https://v5.airtableusercontent.com/v1/13/13/1670544000000/F8TCbx1xkbbzNh6TdGOo8g/hPKwJu5pf1-IiQpzO46UBTwfW8yO1m4O2K8WYfoKcr_qG6TJYxvvoL5Si5kXozO6kQ1CJvsrWhAk81pywHco-UHu0P4st6H9KTwfKGsWrbs/CryiZJeFA_JMqSduBQWOJi_eMjEvpA7ASYbFyxQfjgo),2016.006.AaW.JuHor-Photo2016Larson (48).jpg (https://v5.airtableusercontent.com/v1/13/13/1670544000000/TqgWlLktmLxc3whxIcuYfw/PMtY0XqXyA0HnPgk4jLVVgimYkGiudfLZoApayfNZCOnNiYxY6aURsG1GjVeSzj4w1CaJfA5BbBCJ4JOxZl-m8tJ4Qb8oSvuDot2RuqiF7k/9M-TONW43EO8s4x44sXFOfz8J7noEGctcM94A8zSw8M),2016.006.AaW.JuHor-Photo2016Larson (47).jpg (https://v5.airtableusercontent.com/v1/13/13/1670544000000/vs6wyznB1FdEQywtpetkSQ/CPkmGHet7sM3ZuZkc8fOr5zyGaeOnYl6MrIdmo2Sg-5L_asvGgvQF23DjemKrl3WTEXIvFcoyPvksaLHDaxg2S_qK_Eu8bR449rPb3FWaQ8/k1YqCrwMZ7su_PtKax8jVYV1WjrswDpO6aEiw7T_FXs),2016.006.AaW.JuHor-Photo2016Larson (46).jpg (https://v5.airtableusercontent.com/v1/13/13/1670544000000/3vZY4Wu29-dqGuiOvKVfmg/Xid8yiTgQJPPu2i17BLbnGqxO5IeBKiEF9vGFixiV4KFniHizyUd9tL0ccoNA1hPZQHAOk93kJ5HCer3Iuo0pPGT-5HnXG3MaQaU3TN7Rj8/mJbgfSSCQ7xdjz_iB6vOGqOuPBa7b6cl_oqEKcB2PUY),2016.006.AaW.JuHor-Photo2016Larson (45).jpg (https://v5.airtableusercontent.com/v1/13/13/1670544000000/nhRadpzCujLrmBR6nY-2xQ/xlDMSskReGZRjuv6ZNgO_EIys7catXBkWuErMw7GYmRN2JU04ukWamh2qD2ZdTu4ZKFbuglJJOqcjoCLsBPpIHGQGHglyZfwNyouy673MnA/jwojGyI-ahLhzxi23yuQcjMsY17KGh4IJarduNeJYF4),2016.006.AaW.JuHor-Photo2016Larson (44).jpg (https://v5.airtableusercontent.com/v1/13/13/1670544000000/Q1jJBiy4WdHYTircczCVUg/IdbMSv0rbFq8Tj5WUlaykj3WxEUjw4co39Px0mLxHjfZjjNDjb5RMVsE1Xhj65YWtmxPdZiPBvfoyqAYKa0g1UDqlsRlyi2hOeh2ZLcXdno/ERu-Ill3o1WpYVnq4hNe_bn75-RQSUWZpUCvQu-H8HA),2016.006.AaW.JuHor-Photo2016Larson (43).jpg (https://v5.airtableusercontent.com/v1/13/13/1670544000000/Nv9pms-RScIpZEVlXzphgw/2DEXt7ypPmmBMcQE7duO2_pkROiONCnb1NtpHAvNnYmDbO7UWmmZNdIpEgktms7mlT1S2meHpYb5xLhskkESzD6a9zJi-pY6tP8uAG0KJh8/IqoSsHM55VbFTaBhZjtmL_z0TlBBi2UesSe2K96GI_g),2016.006.AaW.JuHor-Photo2016Larson (42).jpg (https://v5.airtableusercontent.com/v1/13/13/1670544000000/r9L0s_-yQJCxOi80cjexLA/hkcNCbjuTopnYFKdNM3RHwEL0kwtv_uDs5hI7LeoI07IGEQecZ6ZOHuKrDvRcPuGQoCVOCgYMkqawLqruXmTxz78LZLKExLtAG8VC2VDGks/5uH_teZgaXOMFICXHVdO-8R4_9Dx96dv5czz8uwOm5I),2016.006.AaW.JuHor-Photo2016Larson (41).jpg (https://v5.airtableusercontent.com/v1/13/13/1670544000000/zyz62xZDUAKs3OuzUSxSUw/Gx_wHc7fyEPiYM1PSCo4_J1OYdnsDYahRz-5cL-jrBXlaqaa-Uwm_iv2Br7s-8t8M_Sehl0seayjQd1551wF_ChHc1rNHKLRJ2Nt4o_2gjk/C14JB5-kuf2RGys5iK-WlmSm2UYtxHwKPORvPmLfY9c),2016.006.AaW.JuHor-Photo2016Larson (40).jpg (https://v5.airtableusercontent.com/v1/13/13/1670544000000/Ks1ZSpTgd_X2_oChUaGYkQ/jSaZJafGgbVcDwoGGcjXm6GPeoS5ieMIViZ0OTJYaxdVD9TwbiF6tkhODSijX9CNPFoHbyg8bg57XU6HqWiXn3It3QacblViidGqken7qQ8/aOa5moEW-dKjQyiDk2978EhQEYGuQcfC56MaasDbWNE),2016.006.AaW.JuHor-Photo2016Larson (39).jpg (https://v5.airtableusercontent.com/v1/13/13/1670544000000/PWr3wjH-A3VaRymi9JoiTg/6l4OnAorR2UbZl9lyfhM4aDMTMTtbOMV_iIpa1zb2jIoSlmv3eC-dyVX_pySX6D4AJkzCMIgOL2AfFQKvlSzMb48OMWXwcKGq_enn3iPtrc/bI85pz52pjIuhrBLOsfDfuC08KWbrmOklE1Yl_4AGBw),2016.006.AaW.JuHor-Photo2016Larson (38).jpg (https://v5.airtableusercontent.com/v1/13/13/1670544000000/OoFlZDfCRdnJwX9pkT_EGg/8LoRc1XjJEHGhqchChkPl--bGQ08MW9-SZID8J09JPTJ3EVG36-p0xSRIDvOY7VkIsKHj9KHj4hCHBZ9DrEIP8AYdT_1CTwhJbd9xm5xTgI/DITWxUivIBuf27pbeNz_yMuKgzwCJRDrttpvz5OtaJg),2016.006.AaW.JuHor-Photo2016Larson (37).jpg (https://v5.airtableusercontent.com/v1/13/13/1670544000000/XQokZAF2FAfyvGyuwXZcGg/iQmECUh3WtUWUwj9tXrcPuidquGjFJLWs7A9pZhQ0aS1SX8rQH5yQl6S2ECvgLd6MvKjFODfCzd1wElgqllREa9yw23B2t60M5g6xOAWkeA/qImaiq--Z8zOO0Hwwq6E42AB6QdV_rtHla9GJjbpJ0M),2016.006.AaW.JuHor-Photo2016Larson (36).jpg (https://v5.airtableusercontent.com/v1/13/13/1670544000000/lrnw9lADmnD4t0mpEtBcPg/gPGN62vOvwuDMsQ2a3R3ZKengICtu9wyVj1OvVMDP7x5IPtTpo7wZ1rt5Lv-9HjnoIt9HMzIMI-E7ndFkXSdqryAqZItdFUVZaOLPpwuimc/duz47VaGqA9A3MY052XLLuq5zdL8OYdU5cEtEx4dZs4),2016.006.AaW.JuHor-Photo2016Larson (35).jpg (https://v5.airtableusercontent.com/v1/13/13/1670544000000/PvNrpglKtni2a3iJg3kYGg/N53R-ZE7OvQ_DOmO4RgbR625PXQBUHyDoKKJEGStKPGzGmf0lchZ0SatYR_4ysZPy-zVujVExgNMKKWuoKGj6kqT9XTcisLtl7R_rnfGkJc/TS8p9_zwHwNTENkRqNLiU2Rtd_SNkfq1qNDPx2VSH1w),2016.006.AaW.JuHor-Photo2016Larson (34).jpg (https://v5.airtableusercontent.com/v1/13/13/1670544000000/bIkfa06TW1OU25c84t8lQg/KGzrr184v8hWF3VnDOsIJcDboruPwabYdQffc3jt1uNUBOhN2eKEsYjiS_tHSQmjMJWZp1oEyihj3Hvib13qt_XiPbH1Q_Qmdi-32iyD-Wk/CxRmgiH1oQLcGdDQLrHTzn6T6r0fhkiI0VpwHHnOC9c),2016.006.AaW.JuHor-Photo2016Larson (33).jpg (https://v5.airtableusercontent.com/v1/13/13/1670544000000/Jy55cWqdw21vrGwY0eDO2A/mHLVdacPd07boTWwZBbTtLHtzsmgfwgoGgRsX9R3xUTEmQb2cAq6fJXgWKQcsnfYBUuhLA-JjkHi5ftf8-bG0Va6rRHTaZIt_26056wg8XI/2n-MCckbY2ZnJermqiKk-FdTdOwvqOtmLwbB1qN2gkc),2016.006.AaW.JuHor-Photo2016Larson (32).jpg (https://v5.airtableusercontent.com/v1/13/13/1670544000000/WuJEGhrkpfsbImyIjiuGZg/7L71xRUiJPMmdGP_9fl96gye7CSumPfDgZ5mn5lCFCA9DkRH2xhcV_aO6vZ1JGyVUXQFv7eu5dJfVCOqIUTzuNXMD3tul1QhRCkK21QlY-Y/Dx1KoS-gVxhZHjdQq-sTBtfjnWNY5U1a8Kn1dB7jWgA),2016.006.AaW.JuHor-Photo2016Larson (31).jpg (https://v5.airtableusercontent.com/v1/13/13/1670544000000/ZmR-AwF8N_vi1Z4wGWIXOQ/Jhn9Y44ffCOxHmZXsi6S5DBgY9NK9VhwPJfEu8GbHdFWpazD_AEno-aJmrakHehEoyrH1Yi5wwq8TZy4hoBunP_P76DxyQ43o6KZNNqNWUw/UmYA-jEL_kiNftRXOQ84lbkrlBC5CRt5XzF0BZp9_1I),2016.006.AaW.JuHor-Photo2016Larson (30).jpg (https://v5.airtableusercontent.com/v1/13/13/1670544000000/c00ReWa81m2cSQfa8PkivQ/QkEVr_fxsEyTf0qMGE_imFVjVSRnzmPVXieb6Ns89HSGLfFX9qusM2aUHVJiyPyt0vGbPo_8Mkz0iDwjNpHZfsPT56k5S8AoAAvTYrN59tE/zD3aEnl2cx8euefIKRKgrN7OE712xT0iRmDSLpdWOX4),2016.006.AaW.JuHor-Photo2016Larson (29).jpg (https://v5.airtableusercontent.com/v1/13/13/1670544000000/R36-eormJL5_K_tCSiRijg/Hw_B7nqUWDDWUMCF-tRTtfCcgrWkl7K98g1SxWczXuaIQ-WBZKYD70_a9vOvDTgiz-34XpZQGwr5-T6BuQDotFcelow8LyUJfu7EuurVabQ/ZHRuamRA-7HxPds5xOtANfDkfQ1XO6m6SDt0KL66X3M),2016.006.AaW.JuHor-Photo2016Larson (28).jpg (https://v5.airtableusercontent.com/v1/13/13/1670544000000/cm6LowCxFNscK-rwwcTUMA/Wx06jbsX6ei4nqoA8xkyYYlVOGS5fT9tj6yV1hntQeK6z4eUz3rL3nbLLSWP_IF1koFbvvuSqY2PpLAO0qVB9UkH03pjkwf8mr0biE3rrHE/s0UluAHnS1mHP2-f-Hb0ICzzby5Lriw5WRYsBPI0WOA),2016.006.AaW.JuHor-Photo2016Larson (27).jpg (https://v5.airtableusercontent.com/v1/13/13/1670544000000/CuErZbkZqlRFKgJDSA98PQ/8EIcjcpQiOaB7gU6n6-Qpub6ewdpSJQr7q9_C6Gwu8Md8zThiIXHc4tTozJxHBbQ3KfijczQoVyT-dDsDK-m0N51H3WXG8k7N25BRcB-QWc/Bpq8mXZPZAf4vvZIRmY4cGsHkNyfc-37DxwkoWGafsA),2016.006.AaW.JuHor-Photo2016Larson (26).jpg (https://v5.airtableusercontent.com/v1/13/13/1670544000000/gEoyAfjkS1B12orxbv4qwg/PV1p9xGEe6wIn6M8uj095vddiu02-I5JM9LiSpkmm8cXZE2jAd-xR2FBvyhwwgedHdr2S8LWCzO2w40Ud_W2ayF93lh8lea9793bgNhg29U/AM4H1M5tHPdwp7u5fjM3rfrbhfBpXX5r70qEOoj8gTA),2016.006.AaW.JuHor-Photo2016Larson (25).jpg (https://v5.airtableusercontent.com/v1/13/13/1670544000000/TuHPlUFdfdChgakuLqUWRA/lYXyOpM_CiOptS94aL77cE1FY4CjSda8IcK_VUz5LggulIEjB9VLETmKK-PuxDPNQFOWsTuIzGgRe2UnLMRSegb7nNaCYIUZBkhQC1SOaxI/4VYfvkaAjGpqhBIGjJCe_DubrLMIUMaV3NKgXLrCxwc),2016.006.AaW.JuHor-Photo2016Larson (24).jpg (https://v5.airtableusercontent.com/v1/13/13/1670544000000/iOxONsv3Pdq_ljH8xC4Diw/viEXFpFsFGNm4qOMtWKf449mI6Khsi9IOc8DPBnOJIupubTGWaa5uVwrqJiF2prubbNaS0yC4TAOaYPGrJyoaHjkYqFYjggB8VyWHFMOPWs/epk-oIW9H8a3j_GOIFdL7I4d7O6yU5ZlgYH3mt3P8D8),2016.006.AaW.JuHor-Photo2016Larson (23).jpg (https://v5.airtableusercontent.com/v1/13/13/1670544000000/aKML-gLUlzrSVRSJ4JwfRg/OoZ_9wKi5Mf2Sni2yMx0ft5wHF2qWcf6uqRio7KS8p_Lq6Gs1a46fUZ95HHXreLtRt8OYZVEWGGhtknJeX_Jdt8DrqHj3MSqR1qnVR45lUE/Mmddhom8PW_SawfTxtJ0XQI28MnHcfCz-9N_VrFaf4c),2016.006.AaW.JuHor-Photo2016Larson (22).jpg (https://v5.airtableusercontent.com/v1/13/13/1670544000000/1_sXGjDkScMaGwe7qeFl-g/qKnz53HFkjUPEOMCSOBr0M-eOHKtw_WUdHH6CuBjwdOuLTUJzV8q0ZlQOiasClzHKi8wpzRAXKtXfB16YtPNxJP5PmKbnj2T4NBaBcEokDk/n-mhH_OOfa6GpGVVmEmiSDsmGj27KDDVStXg2bc8Hhs),2016.006.AaW.JuHor-Photo2016Larson (21).jpg (https://v5.airtableusercontent.com/v1/13/13/1670544000000/qgVVNHaJKyV8drm0Ebi7UQ/Y7qRynRQH05vS3AcUWFDBvFnkSc2BDfHgEtVDD82ATfqyYgMYQgyi1sD-LwjMLGLBcZgGIb5qU-K8XoWtGv-RyUIOwrMDAOirKT9kA23DBg/zcw0F1gGhm-idC00ugG0hKKSgb9ACkV4VHddbLCFxk0),2016.006.AaW.JuHor-Photo2016Larson (20).jpg (https://v5.airtableusercontent.com/v1/13/13/1670544000000/KMkKjBH6tNSNSpaSdBD-wg/SEwVonFiuAF3oi8jZMfq3XeAEHxK59556bRjxCIIIHpbglME2e-Fs-uBx4SaxSx7bQNXrT70HgrCA-q4x2iEzWbsiUfUgU2kW-QbJ0UhB-w/Qk55HaQavDlxf9lbgP2IyQDpNlGcDIlNW4xSMMoBZaQ),2016.006.AaW.JuHor-Photo2016Larson (19).jpg (https://v5.airtableusercontent.com/v1/13/13/1670544000000/kEDYTz-6z6-CdLo02cSgPA/HPjgHIDRoFbKHUhBX6IBP80QHfzS9z00FtPNqn8pQAxf0f-RcuZ8D6NyvOuyPAdH5adFq5Wffxt0irG1FW-06uFsF-PL948Slx7ttXJhxEY/MJ34yJDyr4IVa4F4u3zxx63b09UYY3mhOq6EeAe-Jq4),2016.006.AaW.JuHor-Photo2016Larson (18).jpg (https://v5.airtableusercontent.com/v1/13/13/1670544000000/qoXMAuHwl3if7xEDZ6Tkbg/1TqqufWrsyq8FHbX51o93iCyXljYj4XPnT0hfJIVzogp89243Rz4-kZFoMSORX7Lc8e7qIcnV8SCTop3XAgeee2zKGSlnLihYUmm5tHEXMc/M4pqI5j8Y9WZaaBrQnYM3clw0YmrDyd9VN_zuGq_ipI),2016.006.AaW.JuHor-Photo2016Larson (17).jpg (https://v5.airtableusercontent.com/v1/13/13/1670544000000/qkM1SABVa7xhoEkFDpV9Pw/2C1abur1eA7MlH4FmO-YJ6y6eJMk2OcSJb30dw41WOSnrNCYXK5NttWoJRpRhkkANvPzCE6bkFZICfgX42mec9cLhqp37iZz3Ew5XgA73sI/oKVkP8_Y4VL5SRdiWNPjrGmwm6x1QAYC3M-5sgwC_S8),2016.006.AaW.JuHor-Photo2016Larson (16).jpg (https://v5.airtableusercontent.com/v1/13/13/1670544000000/PKv6Gy0Q6fWszKhkqkds0Q/G5j_G8ShZMlUpaNkNH8lV6Ex26V0uV9UIBdbi9WQIlMojFAqmnst